station_id,stop_name,stop_lat,stop_lon
1000,Dole Ave/Cheddar Rd,-37.70077481,145.01895105
10001,Rex St/Taylors Rd,-37.72697521,144.77615243
10002,Yuille St/Centenary Ave,-37.6761595,144.59578941
10009,Gum Rd/Main Rd West,-37.74149711,144.77589939
1001,Lloyd Ave/Cheddar Rd,-37.69918301,145.01968529
10010,Kings Rd/Main Rd West,-37.74194553,144.78008474
10011,Moffat St/Main Rd West,-37.7423246,144.7834665
10012,Washington St/Main Rd West,-37.74279566,144.78791229
10013,Kate St/Main Rd West,-37.74356938,144.79457342
10014,Raleighs Rd/Centenary Ave,-37.67530436,144.58877643
10016,Melton Cemetery/O'Neills Rd,-37.67498051,144.57825444
10017,Swan St/O'Neills Rd,-37.67875895,144.57750796
10018,Reservoir SC/Broadway,-37.71712122,145.00978028
10019,Northumberland Rd/Pascoe St,-37.7162865,144.93404411
1002,Liston Ave/Cheddar Rd,-37.69744778,145.02100173
10020,Westbreen PS/Pascoe St,-37.71655281,144.93638502
10021,Joffre Rd/Boundary Rd,-37.71691492,144.94008463
10022,Kent Rd/Cumberland Rd,-37.72071084,144.94019503
10023,Warwick Rd/Cumberland Rd,-37.72220292,144.93997217
10025,Daley St/Cumberland Rd,-37.72501492,144.93947446
10026,Pleasant St/Cumberland Rd,-37.72711752,144.93912119
10027,Olive Gr/Cumberland Rd,-37.72922911,144.93876764
10028,Gaffney St/Cumberland Rd,-37.73216543,144.93816426
10029,Pardy St/Cumberland Rd,-37.73392851,144.93797918
1003,Keon Pde/Dalton Rd,-37.69504181,145.02316385
10030,Eastgate St/Cumberland Rd,-37.73550025,144.93767458
10031,Bell St/Cumberland Rd,-37.73761144,144.93729826
10032,Balmoral Ave/Bell St,-37.73879226,144.94195215
10033,Royal Pde/Bell St,-37.73940394,144.94705314
10034,Davis St/Bell St,-37.73979317,144.9507759
10035,Linsey St/Bell St,-37.74008605,144.95362754
10036,Kelson St/Bell St,-37.74032576,144.95601539
10037,Nelson St/Bell St,-37.74071785,144.95991974
10038,Coburg Cemetery/Bell St,-37.74310506,144.98236979
10039,Tasman St/Bell St,-37.7435479,144.98560348
1004,Wood St/Dalton Rd,-37.6920077,145.02548993
10040,Gilbert Rd/Bell St,-37.74397544,144.98952991
10041,Erin St/Bell St,-37.74427667,144.9929264
10042,Penola St/Bell St,-37.74455323,144.99593772
10043,High St/Bell St,-37.7451615,145.0020384
10044,Plenty Rd/Bell St,-37.74548267,145.00503725
10045,Panch Health Service/Bell St,-37.74582045,145.00848964
10047,O'Keefe St/Bell St,-37.74650014,145.01458863
10048,Liberty Pde/Bell St,-37.7494194,145.0371418
10049,Oriel Rd/Bell St,-37.74972949,145.0395284
1005,Settlement Rd/Dalton Rd,-37.68827471,145.02806113
10050,Plunkett St/Bell St,-37.7503134,145.04266824
10051,Melbourne Polytechnic/Bell St ,-37.7510312,145.0451917
10052,Gotha St/Bell St,-37.75189457,145.0478022
10053,Austin Repat MC/Bell St,-37.75267606,145.04982469
10054,Myrtle St/Bell St,-37.75384072,145.0526771
10055,Warringal SC/Cape St,-37.75559602,145.06733017
10056,Heidelberg Primary School/Darebin St ,-37.75455865,145.06946836
10057,Brown St/Rosanna Rd,-37.75210398,145.07036072
10058,Reid St/Rosanna Rd,-37.75001084,145.07076694
10059,St James Rd/Rosanna Rd,-37.74857343,145.07104262
1006,Alison St/Dalton Rd,-37.68400281,145.0291268
10060,Station Rd/Rosanna Rd,-37.74569732,145.07151451
10061,Millicent St/Lower Plenty Rd,-37.74048948,145.06938001
10062,Arden Cres/Lower Plenty Rd,-37.7396742,145.07077433
10063,Milford Gr/Lower Plenty Rd,-37.73803532,145.07360848
10064,Lyons St/Hyde St,-37.80879504,144.89955079
10065,Harris St/Hyde St,-37.81115367,144.89840485
10066,Yarraville Gardens/Hyde St,-37.8142695,144.89727143
10067,Lennox St/Hyde St,-37.81669533,144.8968618
10068,Earsdon St/Hyde St,-37.81822106,144.89651177
10069,Little Hyde St/Hyde St,-37.81988291,144.89621467
1007,Buckingham Ct/Dalton Rd,-37.68055186,145.02970572
10070,Hyde St/Francis St,-37.8217862,144.89530858
10071,Stephen St/Francis St,-37.82146439,144.89243217
10072,Hughes St/Francis St,-37.82125253,144.89066597
10073,Evans St/Bridge St,-37.83418498,144.94058784
10074,Princes St/Bridge St,-37.8358841,144.94241544
10075,Bay Street Shops/Bay St,-37.8385098,144.94260383
10076,Cruikshank St/Liardet St,-37.84002104,144.94502769
10077,Bridport St/Richardson St,-37.84235279,144.94903119
10078,Albert Park Shops/Richardson St,-37.84357915,144.951145
10079,Kerferd Rd/Richardson St,-37.84557519,144.9545104
1008,Wattle St/Dalton Rd,-37.67855662,145.03003064
10080,Middle Park PS/Richardson St,-37.84718593,144.95748885
10081,Wright St/Richardson St,-37.84800597,144.9590459
10082,Nimmo St/Richardson St,-37.84974881,144.96237323
10084,Armstrong St/Danks St,-37.85308237,144.96284971
10086,Fraser St/Patterson St,-37.85536147,144.96696958
10087,Jacoby Reserve/Park St,-37.85719652,144.97043128
10088,Mary St/Park St,-37.85905675,144.97274446
1009,Maple St/Dalton Rd,-37.67501559,145.03061185
10093,Warland Rd/Carrington St,-37.93606921,145.03372288
10094,Dane Rd/Spring Rd,-37.93994574,145.03381301
10095,Besant St/Spring Rd,-37.94259331,145.03316209
10099,Bluff Rd/Wickham Rd,-37.94288719,145.02327695
101,Aquarena/Williamsons Rd,-37.7743757,145.12637945
1010,Deakin Ave/Dalton Rd,-37.67174442,145.03116318
10100,June St/Bluff Rd,-37.94550441,145.02243298
10101,Abberfield Nursing Home/Bluff Rd,-37.94805549,145.02194351
10102,Sandringham College/Bluff Rd,-37.95077656,145.02138116
10103,Bay Rd/Bluff Rd,-37.95432383,145.02064863
10104,Holloway Rd/Bluff Rd,-37.95769938,145.01988649
10105,College Gr/Balcombe Rd,-37.97567846,145.01886832
10106,Cullinane St/Balcombe Rd,-37.97603147,145.02110158
10107,Hunter Ave/Balcombe Rd,-37.97638519,145.02391544
10108,Summerhill Rd/Balcombe Rd,-37.97668155,145.02653734
10109,Haydens Rd/Balcombe Rd,-37.97710062,145.03003259
1011,Ruth St/Dalton Rd,-37.66987509,145.03147335
10110,McNaught St/Balcombe Rd,-37.97805351,145.03527829
10111,Morey St/Balcombe Rd,-37.9781401,145.03938591
10112,Thistle St/Mt Alexander Rd,-37.75084981,144.91426534
10113,Ryland Ave/Maroondah Hwy,-37.79008775,145.2661176
10114,Stirling Rd/Maroondah Hwy,-37.788496,145.27064043
10118,Bonnie View Rd/Maroondah Hwy,-37.78108142,145.28808405
10119,Golf Links Rd/Maroondah Hwy,-37.77829267,145.29215652
1012,Queen St/Dalton Rd,-37.66805061,145.03177098
10120,Primrose Rd/Maroondah Hwy,-37.77464495,145.29293305
10121,Dorset Rd/Maroondah Hwy,-37.77136388,145.29475694
10122,Exeter Rd/Maroondah Hwy,-37.7704751,145.2956175
10123,Maroondah Golf Park/Maroondah Hwy,-37.76702281,145.3011915
10124,Old Melbourne Rd/Maroondah Hwy,-37.76596539,145.30348622
10125,Chirnside Homemaker Centre/Maroondah Hwy,-37.76421039,145.30678445
10126,Fletcher Rd/Maroondah Hwy,-37.76190865,145.3102993
1013,Curtin Ave/Dalton Rd,-37.66550757,145.03221227
10131,Powell St/Spring St,-37.72663676,145.00119751
10132,Frankston St/Spring St,-37.72494772,145.00150387
10133,Broughton Ave/Spring St,-37.72369871,145.00171898
10134,Reservoir St/Spring St,-37.72161757,145.00281868
10135,Croft Cres/Spring St,-37.72031608,145.00419237
10137,Viola St/Spring St,-37.71859025,145.00552066
10138,Compton St/Edwardes St,-37.7158732,145.00206539
10139,Kelsby St/Edwardes St,-37.71540604,144.9979032
1014,Childs Rd/Dalton Rd,-37.66193757,145.03105956
10140,Gilbert Rd/Edwardes St,-37.71605004,144.99284891
10141,Pitt St/Edwardes St,-37.7143332,144.98782437
10142,Newlands Rd/Edwardes St,-37.71400911,144.98467946
10144,Newlands Rd/Henty St,-37.71751675,144.98268985
10145,Kurnai Ave/Henty St,-37.71771013,144.9845111
10146,Wattlebrae St/Henty St,-37.71791593,144.98970143
10147,Boniview St/Henty St,-37.71819909,144.99150894
10148,Henty St/Gilbert Rd,-37.71860851,144.99332441
10149,Kia Ora Rd/Gilbert Rd,-37.72002827,144.99308189
1015,Holroyd Dr/Dalton Rd,-37.65940225,145.03034436
10150,Dwyer Ave/Gilbert Rd,-37.72378444,144.99244725
10151,Knox St/Gilbert Rd,-37.7254198,144.99216483
10152,Beatty St/Gilbert Rd,-37.72640756,144.99195662
10153,Gilbert Rd/Regent St,-37.7294489,144.99168157
10154,Edwardes St/Kelsby St,-37.7151412,144.99822797
10155,Leamington St/Kelsby St,-37.71250846,144.99868452
10157,Seaver Gr/Leamington St,-37.71127601,144.9908678
10158,Gill St/Banbury Rd,-37.71260107,144.98930057
10159,Edwardes St/Banbury Rd,-37.71404765,144.98904593
1016,Grand Pde/Dalton Rd,-37.65686651,145.03068343
10160,Luther College/Plymouth Rd,-37.78317077,145.27132096
10161,Luther College/Plymouth Rd,-37.78345349,145.27339239
10162,Plymouth Rd/Yarra Rd,-37.78365799,145.27443231
10164,Clement Cres/Croydon Rd,-37.78452504,145.28381444
10165,Grandview Ave/Croydon Rd,-37.7866107,145.28345959
10166,Samuel St/Croydon Rd,-37.78999558,145.28258633
10167,Croydon PS/Croydon Rd,-37.79255508,145.28197059
10168,Larissa Ave/Maroondah Hwy,-37.81209504,145.23574985
10169,Oliver St/Maroondah Hwy,-37.80945219,145.23920915
1017,Melbourne Polytechnic/Dalton Rd,-37.65453985,145.0311303
10170,Rupert St/Maroondah Hwy,-37.80850283,145.24020858
10171,Leonard St/Maroondah Hwy,-37.80707171,145.24213948
10172,Mines Rd/Maroondah Hwy,-37.80504761,145.24479993
10173,Dublin Rd/Maroondah Hwy,-37.80268077,145.24744562
10174,Everard Rd/Maroondah Hwy,-37.80176258,145.24872807
10175,463 Maroondah Hwy,-37.80032061,145.2505453
10176,Oban Rd/Maroondah Hwy,-37.7980486,145.25351777
10177,Maggs St/Maroondah Hwy,-37.79398932,145.25934856
10178,Hinkley Ave/Maroondah Hwy,-37.79196732,145.26217837
10179,Cherry Tree Gr/Maroondah Hwy,-37.78960612,145.26707142
1018,Coulstock St/Davisson St,-37.64972294,145.02978404
10180,Highland Ave/Maroondah Hwy,-37.78824725,145.27088471
10184,Warrien Rd/Maroondah Hwy,-37.78236673,145.28475006
10185,Bonnie View Rd/Maroondah Hwy,-37.78092008,145.28814455
10186,Primrose Rd/Maroondah Hwy,-37.77462562,145.29284266
10187,Exeter Rd/Maroondah Hwy,-37.77044578,145.29545922
10188,Maroondah Golf Park/Maroondah Hwy,-37.76634628,145.30177461
10189,Old Melbourne Rd/Maroondah Hwy,-37.76527574,145.30441018
1019,Davisson St/Rufus St,-37.64897429,145.03082392
10190,Chirnside Homemaker Centre/Maroondah Hwy,-37.76406395,145.30662885
10195,High St/Miller St,-37.75211598,145.00028503
10196,William St/Regent St,-37.73069693,145.00360731
10197,Regent St/Spring St,-37.72971721,145.00057004
10198,Rona St/Spring St,-37.72843236,145.00079749
10199,Powell St/Spring St,-37.72668889,145.00108265
102,Lalor Shopping Centre/David St,-37.67173759,145.01677571
1020,Keith Ave/Greenbrook Dr,-37.64768064,145.03539174
10200,Frankston St/Spring St,-37.72449713,145.00150464
10201,Taylor Ave/Spring St,-37.72337404,145.00170501
10202,Moore Cres/Spring St,-37.72137589,145.00291594
10203,Cleeland St/Spring St,-37.71796297,145.00573035
10204,Reservoir Station/Edwardes St,-37.7164395,145.00623633
10205,Olive St/Edwardes St,-37.71621177,145.00449537
10206,Kelsby St/Edwardes St,-37.71554675,144.9982284
10207,Willoughby St/Edwardes St,-37.71538658,144.99675794
10208,Gilbert Rd/Edwardes St,-37.71631622,144.99260349
10209,Pitt St/Edwardes St,-37.71445321,144.98799129
1021,McDonalds Rd/Greenbrook Dr,-37.64645002,145.03671624
10210,Newlands Rd/Edwardes St,-37.71407768,144.98447341
10211,Newlands Rd/Henty St,-37.71743704,144.98277142
10212,Meadowbank Dr/Furlong Rd,-37.76142262,144.82225064
10213,Sunshine Hospital/Furlong Rd,-37.76073025,144.8160052
10214,Ironbark St/Furlong Rd,-37.76043529,144.81322154
10215,Ginifer Station/Mulhall Dr,-37.75814585,144.81076913
1022,Greenbrook SC/McDonalds Rd,-37.64583938,145.04009848
10224,St Albans Sec Col/Main Rd East,-37.7449737,144.8065612
10225,Lester Ave/Main Rd East,-37.74542182,144.81030437
10227,Lyons St/Hyde St,-37.80816434,144.8995573
10228,Princess St/Hyde St,-37.81124708,144.89808415
10229,Somerville Rd/Hyde St,-37.81468058,144.89707801
1023,Greenview Ct/McDonalds Rd,-37.64622011,145.04348865
10230,Lennox St/Hyde St,-37.81633282,144.89674713
10231,204 Hyde St,-37.81787818,144.89648743
10232,Kent St/Hyde St,-37.8201603,144.89610455
10233,Hyde St/Francis St,-37.82174027,144.89576431
10234,Ballarat St/Francis St,-37.82111687,144.89013589
10235,Bunninyong St/Francis St,-37.8208156,144.88740663
10237,271 Narre Warren North Rd,-37.99940239,145.31201518
10238,Hansen Reserve/Roberts St,-37.80522521,144.87088226
10239,Indwe St/Roberts St,-37.8031872,144.87130424
1024,Merrill Dr/McDonalds Rd,-37.64648814,145.04606576
10240,Sunshine Rd/Roberts St,-37.80113668,144.87153348
10241,Stradbroke St/Sunshine Rd,-37.80152754,144.87921119
10242,West Footscray Station/Sunshine Rd,-37.8023513,144.88342397
10243,Ross St/Bridge St,-37.83424107,144.94018859
10244,Station St/Bridge St,-37.83543288,144.94134852
10245,Bay Street Shops/Bridge St,-37.83674885,144.94342543
10246,Cruikshank St/Liardet St,-37.84030808,144.94495154
10247,Bridport St/Richardson St,-37.84223719,144.94860257
10248,Albert Park Shops/Richardson St,-37.84410384,144.95177823
10249,Kerferd Rd/Richardson St,-37.84628376,144.95535451
1025,Meadow Glen Dr/McDonalds Rd,-37.64712291,145.05175017
10250,Middle Park PS/Richardson St,-37.84754314,144.95781993
10251,Wright St/Richardson St,-37.84814049,144.9590081
10252,Nimmo St/Richardson St,-37.84986453,144.96229048
10253,Armstrong St/Richardson St,-37.85065551,144.9637348
10254,Armstrong St/Danks St,-37.8531223,144.96255311
10255,Langridge St/Patterson St,-37.85483448,144.965677
10256,Fraser St/Park St,-37.85549678,144.96697723
10257,Jacoby Reserve/Park St,-37.85754683,144.97088768
10258,Sarnia Ct/Kurrajong Rd,-38.00222626,145.31286155
10259,High St/Memorial Ave,-37.64487313,145.02808747
1026,Bridle Ct/Meadow Glen Dr,-37.64604139,145.0512004
10260,Watermoor Ave/Eycot St,-37.83735378,145.30367027
10261,Watermoor Ave/Rendcomb St,-37.83639126,145.30441957
10262,Bibury Ct/Rendcomb St,-37.83536005,145.30665902
10263,Collier Rd/Rendcomb St,-37.83401866,145.30675787
10264,Watermoor Ave/Collier Rd,-37.83334646,145.30513697
10265,Colchester Rd/Collier Rd,-37.8327976,145.30269515
10266,Colchester Rd/Allambanan Dr,-37.83316796,145.30150492
10267,Toolimerin Ave/Allambanan Dr,-37.83236104,145.29992127
10268,Bagora Ct/Allambanan Dr,-37.83155361,145.29830358
10269,Canterbury Gardens/Allambanan Dr,-37.8315058,145.29499814
1027,Derby Dr/Meadow Glen Dr,-37.64383117,145.05160951
10270,Aylesbury Ave/Blandford Cres,-37.83103698,145.2924978
10271,Sherbourne Ave/Blandford Cres,-37.83015837,145.29281348
10272,Stuart St/Blandford Cres,-37.82816332,145.29382524
10273,Bayswater North PS/Stuart St,-37.82752963,145.29487378
10274,Burdekin Ave/Colbury Rd,-37.82878756,145.29648099
10275,Grant Dr/Burdekin Ave,-37.82773499,145.29723237
10276,Leighton Rd/Burdekin Ave,-37.82563227,145.29765563
10277,Anderson Cl/Burdekin Ave,-37.82466524,145.30058643
10278,Colchester Rd/Burdekin Ave,-37.82631327,145.30300279
10279,Canterbury Rd/Colchester Rd,-37.82379264,145.30382174
1028,Glendale Ave/Derby Dr,-37.64310067,145.04830789
10283,Garden St/Liverpool Rd,-37.81696549,145.31666763
10284,Lade Ave/Liverpool Rd,-37.81579185,145.31652389
10285,Kilsyth Sports Centre/Liverpool Rd,-37.81243309,145.31608899
10286,Orchard St/Liverpool Rd,-37.81125011,145.31592275
10287,Luscombe Ct/Liverpool Rd,-37.80985042,145.31572736
10288,Pleasant St/Liverpool Rd,-37.80640108,145.3152605
1029,Winchester Ave/Derby Dr,-37.6426542,145.04420555
10291,Belvedere Dr/Swansea Rd,-37.80650079,145.35095919
10292,Greenhills Ave/Cambridge Rd,-37.80354635,145.34657239
10293,Emery Lane/Cambridge Rd,-37.80282742,145.3447938
10294,Montrose Brickworks Flora Reserve/Cambridge Rd,-37.80155059,145.34051757
10295,Acacia Ave/Cambridge Rd,-37.80122309,145.33710612
10296,Alpine Way/Cambridge Rd,-37.80091029,145.33410326
10297,Chittenup Bend/Overton Lea Bvd,-37.70612279,144.76569425
10298,Hume Dr/Overton Lea Bvd,-37.70909565,144.76802102
10299,Hume Dr/Copperfield Dr,-37.71039305,144.77086326
103,Nicholson St/Johnston St,-37.80026472,144.99806721
1030,Northumberland Dr/Derby Dr,-37.64260985,145.04207603
10300,Yellow Gum Rd/Copperfield Dr,-37.71387234,144.77185932
10301,Copperfield College/Copperfield Dr,-37.71860226,144.77084407
10307,Rex St/Taylors Rd,-37.72686198,144.77636004
10308,Longfellow Dr/Taylors Rd,-37.72661222,144.77410971
1031,Scarborough Rd/McDonalds Rd,-37.64543964,145.03503144
10311,Glenferrie Rd/Wattletree Rd #45,-37.8624552,145.02850849
10315,Rialto St/Main Rd West,-37.74164593,144.77614459
10316,Kings Rd/Main Rd West,-37.74212071,144.78029512
10317,Buchanan St/Main Rd West,-37.74249035,144.78365448
10318,Cleveland St/Main Rd West,-37.74284422,144.78713917
1032,Church St/High St,-37.64552951,145.02638138
10320,Carberry Dr/Gisborne-Melton Rd,-37.67319695,144.59810714
10321,Riddle Dr/Centenary Ave,-37.67587984,144.59444926
10322,Raleighs Rd/Centenary Ave,-37.67522817,144.58901698
10323,Kurunjang Dr/Centenary Ave,-37.67454085,144.58493511
10324,Melton Cemetery/O'Neills Rd,-37.67486942,144.57811067
10325,Cassia Rd/O'Neills Rd,-37.67830775,144.57747729
10326,Church St/O'Neills Rd,-37.68150099,144.57763417
10327,Alexandra St/Unitt St,-37.68197986,144.58032849
10328,Joyce St/High St,-37.6839206,144.5726004
1033,High St/Manningham Rd,-37.77457524,145.11572468
10336,Prior Ct/Black Dog Dr,-37.69296045,144.55827782
10339,Emms St/Settlement Rd,-37.69699384,145.05163628
1034,Wedge St/High St,-37.65046773,145.02474315
10340,Green St/Settlement Rd,-37.69427296,145.038098
10341,Norris Bank Primary School/Settlement Rd ,-37.69480568,145.04249573
10343,Brand Dr/Settlement Rd,-37.69391942,145.03472764
10344,Wood St/Settlement Rd,-37.69362854,145.03187735
10345,Finton Gr/Keon Pde,-37.69528114,145.01648877
10346,Keon Park Station/Keon Pde,-37.69488962,145.01304011
10347,High St/Mahoneys Rd,-37.69455242,145.00961271
10348,Edgars Rd/Mahoneys Rd,-37.69383767,145.00252094
10349,Lipton Dr/Mahoneys Rd,-37.69331701,144.99732938
1035,Thompsons Heights Shops/Thompsons Rd,-37.77521266,145.09150235
10350,Callander St/Mahoneys Rd,-37.69313478,144.99562179
10351,Clay Ct/Mahoneys Rd,-37.69278595,144.99207013
10352,Lawson Cres/Mahoneys Rd,-37.69217805,144.98601918
10353,Lockton Ave/Mahoneys Rd,-37.69179804,144.98224164
10354,Industrial Ave/Mahoneys Rd,-37.69154717,144.97969678
10355,Phillip St/Mahoneys Rd,-37.69114563,144.9757271
10356,Sydney Rd/Mahoneys Rd,-37.68952242,144.95894209
10357,Cheviot Rd/Mahoneys Rd,-37.68993354,144.96291132
10358,Darren Ct/Bernard St,-37.9529432,145.05947201
10359,Concord Cct/Oakwood Rd,-37.75089254,144.76855873
1036,High St/Mitchell St,-37.77208666,144.99871396
10360,Woodland Dr/Oakwood Rd,-37.74604304,144.76991872
10361,Evergreen Ave/Oakwood Rd,-37.7442098,144.77018938
10362,Leckie Dr/Evergreen Ave,-37.74376007,144.7683304
10363,Delamare Dr/Evergreen Ave,-37.74355193,144.7654315
10364,Wintersun Dr/Evergreen Ave,-37.74498015,144.76328907
10365,Stephen Calleja Reserve/Opie Rd,-37.74375365,144.76181667
10366,Main Rd West/Opie Rd,-37.74183024,144.76303211
10367,Opie Rd/Main Rd West,-37.74030079,144.76506402
10368,Balnarring Dr/Main Rd West,-37.74047544,144.76667016
1037,High St/Bastings St,-37.77385752,144.99845049
10371,Duncraig Ave/Wattletree Rd #44,-37.86206934,145.0253815
10372,Maplewood Rd/Gillespie Rd,-37.73361903,144.77531821
10373,Beverley St/Gillespie Rd,-37.73406595,144.77942374
10374,Kings Rd/Gillespie Rd,-37.73425086,144.78158547
10375,Glenrosa Ct/Gillespie Rd,-37.73461976,144.78538703
10376,Atheldene Dr/Gillespie Rd,-37.73492939,144.78891806
10377,Andrew Rd/Jamieson St,-37.73611719,144.78882599
10378,John St/Jamieson St,-37.73894055,144.78705117
1038,Andrew St/Bastings St,-37.7744256,145.00324903
10381,Parnell St/Bernard St,-37.95339543,145.06285166
10385,Regent Pde/Bernard St,-37.95368042,145.06483587
10386,Cheltenham Sec Col/Bernard St,-37.95402239,145.067547
10387,Willen St/Bernard St,-37.95453925,145.07158518
10388,Kingston Centre/Bernard St,-37.95475456,145.0759272
10389,Warrigal Rd/Kingston Rd,-37.9534012,145.07803388
1039,Sharp St/Bastings St,-37.7748313,145.00645115
10390,Kingston Centre/Kingston Rd,-37.95366634,145.08047391
10391,St Andrews Dr/Kingston Rd,-37.953993,145.08282131
10392,Kingston Heath Golf Club/Kingston Rd,-37.95433869,145.08634051
10393,Kingston Rd,-37.95482827,145.09040232
10394,Pietro Rd/Kingston Rd,-37.95532671,145.09446396
10395,Old Dandenong Rd/Kingston Rd,-37.95597392,145.09937543
10397,Peace Rd/Kingston Rd,-37.95691436,145.10739804
10398,Heatherton Christian College/Kingston Rd,-37.95741167,145.1114258
104,Eucalypt Ave/Williamsons Rd,-37.77097885,145.12869041
1040,Northcote St/Bastings St,-37.7749931,145.00802495
10400,Victory Rd/Clayton Rd,-37.95324117,145.11435514
10402,Unitt St/O'Neills Rd,-37.68191942,144.57782465
10403,Alexandra St/Unitt St,-37.68214694,144.5796881
10404,Joyce St/High St,-37.68403627,144.57252859
1041,Johnson Park/Bastings St,-37.77530745,145.01062783
10414,High St/Trethowan Ave,-37.68484374,144.55448477
10415,Helen Ct/Trethowan Ave,-37.68439424,144.55106388
10416,Bulmans Rd/Westlake Dr,-37.68295982,144.54925154
1042,Russell St/Bastings St,-37.77565718,145.01372936
10421,Warrigal Rd/Waverley Rd,-37.8805105,145.09222114
10422,Margot St/Waverley Rd,-37.88088045,145.09558847
10423,Amaroo St/Waverley Rd,-37.88125988,145.09843256
10424,Baradine St/Waverley Rd,-37.88159622,145.10140287
10426,Nyrang St/Huntingdale Rd,-37.88133384,145.10917533
10427,Melinga Cres/Huntingdale Rd,-37.87814434,145.1097799
10428,Burton St/Huntingdale Rd,-37.87634709,145.1100987
10429,Jordanville Station/Huntingdale Rd,-37.87245549,145.11075522
1043,Grandview Gr/Bastings St,-37.77579494,145.01495187
10430,Electra Ave/Huntingdale Rd,-37.87059608,145.1111324
10431,High Street Rd/Huntingdale Rd,-37.86745142,145.11172426
10432,Sylvan Cres/Huntingdale Rd,-37.86622959,145.11196007
10433,Essex Heights Reserve/Huntingdale Rd,-37.86353405,145.11246082
10434,Eildon Rd/Huntingdale Rd,-37.86220448,145.11272209
10435,Arthur St/Huntingdale Rd,-37.85988546,145.11309951
10436,Leyland Rd/Huntingdale Rd,-37.85745115,145.11359351
10437,Peacock St/Highbury Rd,-37.85555133,145.11482401
10438,Station St/Highbury Rd,-37.85595755,145.11824624
10439,Goold St/Station St,-37.85450301,145.11914703
1044,Duncan St/Rathmines St,-37.77640378,145.01632074
10440,Talbett St/Station St,-37.85309253,145.11942156
10441,Station St/Burwood Hwy,-37.85066567,145.11925592
10442,Deakin University/Burwood Hwy,-37.85017687,145.11517685
10443,Presbyterian Ladies College/Elgar Rd ,-37.84890651,145.10901525
10444,Daniel St/Elgar Rd,-37.84695683,145.10938327
10445,Deakin University/Elgar Rd ,-37.84388387,145.10995041
10446,Cadorna St/Elgar Rd,-37.84172718,145.11033502
10447,Wattle Park/Elgar Rd,-37.83768868,145.11082444
1045,Wingrove St/Rathmines St,-37.77764399,145.01611728
10451,Corrigan Rd/Henderson Rd,-37.98191686,145.1644922
10452,Walnut Cres/Henderson Rd,-37.98175828,145.16299325
10453,Alderney Rd/Henderson Rd,-37.98153163,145.16117721
10454,Gwent St/Paterson Rd,-37.97963185,145.15553199
10455,Northgate Dr/Paterson Rd,-37.97918677,145.15186571
10456,Springvale Rd/Paterson Rd,-37.97870161,145.14795001
10457,Springvale Rd/Clarke Rd,-37.97738313,145.14605911
10458,Kingston Gardens Aged Care/Clarke Rd,-37.9757183,145.14506499
1046,Fairfield Station/Wingrove St,-37.7788634,145.01788998
10460,Spring Rd/Clarke Rd,-37.96781307,145.14038048
10461,Camelot Dr/Clarke Rd,-37.96537223,145.13932653
10462,Spring Parks PS/Clarke Rd,-37.96334269,145.13863788
10463,Heatherton Rd/Westall Rd,-37.95958988,145.13668385
10465,Bellavista Cres/Westall Rd,-37.95517695,145.13743273
10467,Thames Ave/Westall Rd,-37.95213993,145.13799882
10468,Spring Valley Dr/Westall Rd,-37.9479084,145.13882262
1047,Fairfield Community Centre/Station St,-37.77667332,145.01841399
10470,Westall SC/Rosebank Ave,-37.94076775,145.13975381
10472,Rosebank Ave/Wordsworth Ave,-37.93881793,145.13158738
10473,Oakes Ave/Wordsworth Ave,-37.93670679,145.13200496
10474,Milton Ave/Oakes Ave,-37.93544863,145.13052348
10475,Bevan Ave/Oakes Ave,-37.93515987,145.12823237
10476,Mallawa St/Main Rd,-37.9342997,145.1274122
10477,McMillan St/Main Rd,-37.93271879,145.12773677
10478,Centre Rd/Haughton Rd,-37.92985627,145.12680816
10479,Audsley St/Centre Rd,-37.92906262,145.12281208
1048,Mitchell St/Station St,-37.7741212,145.01884544
10481,St Bedes College/Naples Rd,-37.99018411,145.06851141
10482,Olive St/Clayton Rd,-37.92971986,145.11882461
10483,Kimbarra St/Clayton Rd,-37.9319466,145.11831274
10484,Byron St/Clayton Rd,-37.93496679,145.1178261
10485,Whiteside Rd/Clayton Rd,-37.93835484,145.11723901
10486,Clayton South PS/Clayton Rd,-37.94082533,145.11675493
10488,Murphy St/Bourke Rd,-37.9428757,145.1153598
10489,Allwen Ct/Bourke Rd,-37.94252127,145.11236467
1049,Separation St/Station St,-37.77113842,145.01939053
10490,Glenelg Dr/Bourke Rd,-37.94220974,145.1098009
10491,Springs Rd/Bourke Rd,-37.94179765,145.1065911
10492,Clarinda SC/Bourke Rd,-37.9413522,145.1029953
10494,Clarinda Rd/Bourke Rd,-37.94092338,145.09931947
10495,Angus Ct/Bourke Rd,-37.94042201,145.09562279
10496,Cedar Ct/Bourke Rd,-37.94009432,145.09319613
10497,Barkers St/Old Dandenong Rd,-37.93791432,145.08936095
10498,Washington Dr/Old Dandenong Rd,-37.93596162,145.08731788
10499,Commonwealth Golf Club/Old Dandenong Rd,-37.9339687,145.08446812
105,Trenerry Cres/Johnston St,-37.80048422,145.00037819
1050,Edwin St/Station St,-37.76932246,145.01965469
10500,Tecoma Ct/Old Dandenong Rd,-37.93237986,145.08208588
10501,Warrigal Rd/South Rd,-37.93863706,145.07840718
10502,Kingsway/South Rd,-37.93809268,145.07432502
10503,Alex Ave/South Rd,-37.93768714,145.07102441
10504,Bignell Rd/South Rd,-37.93748641,145.06812811
10505,Sullivan St/South Rd,-37.93693548,145.06421694
10507,Chesterville Rd/South Rd,-37.93644315,145.06058875
10508,Rowans Rd/South Rd,-37.93608075,145.05664998
1051,Darebin Rd/Station St,-37.76666243,145.02010028
10510,Fletcher St/South Rd,-37.93530908,145.05194833
10511,Delhi St/Mitcham Rd,-37.8190587,145.19395873
10512,Agra St/Mitcham Rd,-37.82085457,145.19411946
10513,Lucknow St/Mitcham Rd,-37.82437318,145.19437454
10514,Orient Ave/Mitcham Rd,-37.82698121,145.19460638
10515,Vernal Ave/Mitcham Rd,-37.82843405,145.19473004
10516,Picadilly St/Golf Rd,-37.91358532,145.08897823
10517,Metropolitan Golf Club/Golf Rd,-37.91114197,145.08946232
10518,North Rd/Golf Links Ave,-37.90872073,145.09075337
10519,Ryan St/Blyth St,-37.76746381,144.98129922
1052,John Cain Memorial Park/Station St,-37.76317557,145.02068139
10520,Lee St/Roberts St,-37.76614856,144.98237938
10521,Stewart St/Nicholson St,-37.76495566,144.98060684
10522,Glenmorgan St/Nicholson St,-37.76362757,144.97936022
10523,Lyndhurst Cres/Nicholson St,-37.76248809,144.97755228
10524,Lygon St/Albion St,-37.76194894,144.97292421
10525,Leithead St/Albion St,-37.76160186,144.97003907
10526,Austin Tce/Albion St,-37.76142077,144.96842077
10527,De Carle St/Albion St,-37.76100857,144.96490179
10528,Sydney Rd/Albion St,-37.76078548,144.96294414
10529,Anstey Station/217 Albion St,-37.76057451,144.96116778
1053,Clarendon St/Station St,-37.7614677,145.0209426
10530,Austral Ave/Albion St,-37.7600461,144.95667588
10531,Patterson St/Albion St,-37.75973998,144.95409625
10532,Thistle St/Albion St,-37.75942362,144.95144882
10534,Cornwall St/Albion St,-37.75916369,144.94945821
10535,Trenoweth St/Albion St,-37.75882763,144.94672056
10536,Melville Rd/Albion St,-37.75860969,144.94455857
10537,Wales St/Albion St,-37.75828609,144.94202493
10538,Gronn Pl/Albion St,-37.75797331,144.93908239
10539,Yarrabin St/Albion St,-37.7576592,144.93658259
1054,Rossmoyne Village/Station St,-37.75953596,145.02128921
10540,Hopetoun St/Albion St,-37.75741883,144.9346937
10541,Lawson St/Albion St,-37.75667948,144.93210363
10542,Tennyson St/Albion St,-37.75646403,144.93061135
10543,McPherson St/Albion St,-37.75629323,144.92858437
10544,Pascoe Vale Rd/Albion St,-37.75598449,144.92640234
10546,Pascoe Vale Rd/Brewster St,-37.75138259,144.925044
10547,Kalimna St/Brewster St,-37.75118787,144.92319943
10548,Peterleigh Gr/Brewster St,-37.75097431,144.92131
10549,Napier St/Brewster St,-37.75075832,144.91928446
10554,Station St/Cheltenham Rd,-37.99144912,145.20934774
10555,Cheltenham Rd/George St,-37.98933685,145.204981
10556,Langhorne Pl/Langhorne St,-37.98726043,145.21480126
10557,Langhorne Pl/Langhorne St,-37.98748286,145.21520579
10558,Keneally St/Cheltenham Rd,-37.98999432,145.20554571
1056,Dundas St/Albert St,-37.75392777,145.02058736
10566,Progress Rd/Wattletree Rd,-37.70275905,145.1522194
10567,Banks Rd/Wattletree Rd,-37.6963559,145.14963367
10568,Glen Gully Rd/Wattletree Rd,-37.69426649,145.14742867
10569,Casuarina Rdge/Wattletree Rd,-37.6906652,145.14536352
1057,Bingo St/Albert St,-37.7504227,145.02115746
10570,Parry Rd/Ryans Rd,-37.68892677,145.14256034
10571,Lesay Dr/Ryans Rd,-37.68604955,145.14298366
10574,Happy Valley Rise/Main St,-37.67385589,145.14812915
10576,Waigo Way/Brooks Cres,-37.67478685,145.1575056
10579,Hotham Ct/James Cook Dr,-37.68006054,145.15875853
1058,Oulton Reserve/Albert St,-37.74832919,145.02153101
10580,Farrer Cl/James Cook Dr,-37.6795607,145.1625355
10581,Patyah St/Phipps Cres,-37.67876527,145.16469821
10582,Main Hurstbridge Rd/Phipps Cres,-37.67515911,145.16519526
10583,Diamond Creek Plaza/Main Hurstbridge Rd,-37.67436721,145.15948886
10587,Amaroo Ct/Broad Gully Rd,-37.66891756,145.15735598
10588,Ryan St/Broad Gully Rd,-37.66934623,145.15364931
10589,Grassy Flat Rd/Broad Gully Rd,-37.66941438,145.15109665
1059,Ovando St/Albert St,-37.74603732,145.02189848
10590,Clyde St/Collins St,-37.6720061,145.14970578
10592,Nillumbik Park/Chute St,-37.67332564,145.15397019
10595,Beech St/Alexander Ave,-37.68058701,145.01728844
10596,Frederick St/Alexander Ave,-37.68094756,145.02051051
10597,Acacia St/Alexander Ave,-37.68125482,145.02324643
10598,Nick Ascenzo Reserve/Alexander Ave,-37.68168775,145.02703361
10599,Smith Ave/Darebin Dr,-37.68181342,145.03131654
106,Clarke St/Johnston St,-37.80062579,145.00181677
1060,Eton St/Albert St,-37.74388095,145.02228501
10600,Chapman Ave/Darebin Dr,-37.68188338,145.03388873
10601,Bates Ave/Darebin Dr,-37.68016996,145.03544206
10602,Valentine Ave/Darebin Dr,-37.67866901,145.03568576
10603,McKimmies Rd/Darebin Dr,-37.67607171,145.03611709
10604,Lalor Plaza/Darebin Dr,-37.67404999,145.03647653
10605,Donald St/Darebin Dr,-37.66924484,145.03583224
10606,Hertford Pl/Darebin Dr,-37.66660876,145.03501745
10607,Dalton Rd/Burton St,-37.66709852,145.03142201
10608,49 Burton St,-37.66695776,145.03000859
10609,Ruthven Cres/Burton St,-37.66663996,145.0271714
1061,Blake Park/Albert St,-37.74162795,145.02282161
10610,Cherry Ct/Edmondson St,-37.66587198,145.02490169
10611,Edmondson St/Curtin Ave,-37.66452824,145.02376963
10612,Newton Cres/Curtin Ave,-37.66515227,145.02121364
10617,Lalor SC/Station St,-37.67312663,145.015775
10618,Heath St/Station St,-37.67654127,145.01518514
10621,Heather Ave/Spring St,-37.68184381,145.00524665
10622,Johnson St/Spring St,-37.68226084,145.00912488
10623,McLeod St/Spring St,-37.68261815,145.01267591
10625,RGC Cook Reserve/Victoria Dr,-37.67355042,144.99130759
10628,Gillwell Rd/Barry Rd,-37.67151186,144.99384552
10631,Franklin Rd/Edgars Rd,-37.67011987,145.00315707
10632,Robert St/Edgars Rd,-37.66776806,145.00424045
10633,Dion Cl/Edgars Rd,-37.66538614,145.00514318
10634,CityLife Church/Kingsway,-37.66460627,145.00752209
10635,Lyndon St/Kingsway Dr,-37.66500999,145.01115038
10636,Linoak Ave/Kingsway Dr,-37.66524274,145.01319613
10638,Mount View Rd/Main St,-37.67979342,145.00976914
10639,Main Street Rec Reserve/Main St,-37.67942682,145.00620717
10640,Simpson St/Main St,-37.67895487,145.0017523
10644,Alexina St/Alfrieda St,-37.74031273,144.80113836
10645,Westvale Church/Alfrieda St,-37.73775346,144.8016226
10646,Collins St/Biggs St,-37.73697864,144.8025987
10647,Walmer Ave/Biggs St,-37.73743546,144.80631849
10648,Leslie St/Biggs St,-37.73776742,144.80914556
1065,40 Dorking Rd,-37.81636664,145.13116873
10655,Sunshine Ave/Stenson Rd,-37.73921615,144.82459246
10656,Driscolls Rd/Stenson Rd,-37.73827016,144.82802443
10657,Harefield Cres/Driscolls Rd,-37.73693278,144.82733729
10658,Leavesdon Ave/Driscolls Rd,-37.73488199,144.82559307
10659,Valewood Dr/Driscolls Rd,-37.73168752,144.82291796
1066,Crevelli St/Tyler St,-37.73267569,145.02907373
10660,Green Gully Rd/Driscolls Rd,-37.72832293,144.82079269
10661,Hedgeley Rd/Green Gully Rd,-37.72876499,144.81789781
10662,Sunshine Ave/Taylors Rd,-37.72950426,144.81305397
10663,Oslo Way/Taylors Rd,-37.72912225,144.80946847
10668,Carbine Way/Taylors Rd,-37.72792313,144.7983167
10669,Theodore St/Taylors Rd,-37.7280174,144.80046964
1067,Burkitt Ct/Tyler St,-37.73287926,145.03100869
10670,Keilor Central Shopping Centre/Taylors Rd ,-37.72728401,144.80608485
10673,Carbine Way/Goodwood Dr,-37.72578853,144.79548679
10674,Goodwood Dr/Belmont Ave,-37.7242358,144.79630432
10675,Thornhill Dr/Belmont Ave,-37.72362154,144.79960131
10676,Belmont Ave/Copernicus Way,-37.7211646,144.80074045
10677,Lancia Dr/Copernicus Way,-37.71971679,144.79849164
10678,Goodwood Dr/Copernicus Way,-37.71915592,144.79500277
10679,Roseberry Ave/Copernicus Way,-37.71779909,144.79184388
1068,Seston St/Tyler St,-37.73313429,145.03332811
10680,Darebin Ave/Copernicus Way,-37.71506488,144.78972434
10681,Lady Nelson Way/Copernicus Way,-37.71266444,144.78954612
10682,Lady Nelson Way/Chichester Dr,-37.7117239,144.79321533
10683,Cocoparra Cres/Chichester Dr,-37.70960334,144.79402689
10684,Reed Cres/Bond Dr,-37.70372693,144.78485514
10685,Booth Way/Bond Dr,-37.70204626,144.78174077
10687,Ross Smith Ave/Nepean Hwy,-38.14158201,145.12150864
10688,O'Grady Ave/Nepean Hwy,-38.13786283,145.12336113
10689,Mereweather Ave/Nepean Hwy,-38.13438864,145.12419173
1069,Sullivan Memorial Park/Seston St,-37.73187154,145.03380405
10690,Allawah Ave/Nepean Hwy,-38.133022,145.12438645
10691,Nepean Hwy/Overton Rd,-38.12947882,145.12541265
10692,Kananook Ave/Boonong Ave,-38.12568077,145.12684453
10693,Fortescue Ave/Boonong Ave,-38.12583517,145.12804983
10694,Kananook Primary School/Boonong Ave,-38.12614863,145.13075692
10696,Kananook Station/Wells Rd,-38.12120749,145.13511502
10697,VicRoads Customer Service Center/Hartnett Dr ,-38.11784296,145.14059599
10698,Peninsula Bvd/Hartnett Dr,-38.11489466,145.14106998
10699,Heversham Dr/Hartnett Dr,-38.11205518,145.1415868
107,Roseland Gr/St Elmo Rd,-37.76064245,145.0465506
1070,Clingin St/Seston St,-37.72915851,145.03431833
10701,Boonong Ave/Fortescue Ave,-38.12551625,145.12782982
10702,Buna Ave/Fortescue Ave,-38.12331478,145.12822828
10703,McCulloch Ave/Fortescue Ave,-38.12107544,145.12851361
10704,Milne Ave/Fortescue Ave,-38.11830036,145.12910918
10705,Moresby Ave/Fortescue Ave,-38.11639632,145.12951137
10706,Bardia Ave/Fortescue Ave,-38.11376499,145.13008037
10707,Seaford Rd/Fortescue Ave,-38.11099109,145.13018533
10708,Johnstone St/Railway Pde,-38.10933611,145.12981694
10709,Seaford Station/Railway Pde,-38.10418017,145.12860269
1071,Caddy Ct/Clingin St,-37.7287497,145.03250235
10710,Seaford North Reserve/Railway Pde,-38.10030349,145.12849633
10711,Selsey St/Railway Pde,-38.09634756,145.12850603
10712,Armstrongs Rd/Railway Pde,-38.09294056,145.12846751
10713,Arthur St/Railway Pde,-38.09159783,145.12846755
10714,Coolibar Ave/Railway Pde,-38.08891321,145.12795451
10715,Attunga Cres/Railway Pde,-38.08510278,145.12748163
10716,Burrawong Ave/Railway Pde,-38.08300738,145.12775172
10717,Kalimna St/Eel Race Rd,-38.08176623,145.12621003
1072,Progress Park/Chaleyer St,-37.72849381,145.02959308
10720,Sugar Berry Rise/Scarlet Oak Ave,-37.6591171,144.5667097
10721,Stewart St/Nicholson St,-37.76557525,144.98047647
10722,Glenmorgan St/Nicholson St,-37.76358998,144.97927043
10723,Lyndhust Cres/Nicholson St,-37.76261376,144.97804832
10724,Lygon St/Albion St,-37.7620623,144.9732276
10725,Barrow St/Albion St,-37.76159228,144.96948311
10726,Mountfield St/Albion St,-37.7614523,144.96815883
10727,De Carle St/Albion St,-37.76107123,144.96487737
10728,Sydney Rd/Albion St,-37.76090299,144.96348577
10729,Anstey Station/222 Albion St,-37.76053473,144.96043104
1073,Eisenhower St/Chaleyer St,-37.72829382,145.02787373
10730,Austral Ave/Albion St,-37.76010014,144.95667439
10731,Westbourne St/Albion St,-37.75949884,144.95162836
10733,Hamilton St/Albion St,-37.75920261,144.94910526
10734,Wallace St/Albion St,-37.75893948,144.94693314
10735,Melville Rd/Albion St,-37.75875183,144.94547406
10736,Bent St/Albion St,-37.75838132,144.94231741
10737,Gronn Pl/Albion St,-37.75799152,144.93909323
10738,Yarrabin St/Albion St,-37.75769185,144.93638872
10739,Waxman Pde/Albion St,-37.75748227,144.93471464
10740,Lawson St/Albion St,-37.75693284,144.93267545
10741,Tennyson St/Albion St,-37.75666215,144.93111661
10742,McPherson St/Albion St,-37.7563833,144.92858185
10743,Pascoe Vale Rd/Albion St,-37.7561324,144.92661387
10744,Raleigh St/Pascoe Vale Rd,-37.75415222,144.92572708
10745,Pascoe Vale Rd/Brewster St,-37.75148328,144.92462124
10746,Shaftesbury St/Brewster St,-37.75121671,144.9222793
10747,Napier St/Brewster St,-37.75087501,144.91874775
10748,Mashoobra St/Boundary Rd,-37.71865906,144.95692874
10749,Adler Gr/Boundary Rd,-37.71836352,144.95391915
1075,Dorrington Ave/Albert St,-37.72652874,145.02472094
10750,Shorts Rd/Lorensen Ave,-37.72352161,144.96086819
10751,Athol Ave/Shorts Rd,-37.72354222,144.95789508
10752,Guilfoyle Ave/Shorts Rd,-37.72318478,144.95443317
10756,Merbein St/Sussex St,-37.71753264,144.95174115
10757,Kingsley College/South St,-37.71545421,144.94985851
10758,Pascoe Vale Gardens Ret Village/South St,-37.71502252,144.94628563
10759,Princess St/South St,-37.71465911,144.94301719
1076,Fenwick St/Chadstone Rd,-37.88227985,145.07911119
10760,Cumberland Rd/South St,-37.71443728,144.94115154
10761,West St/South St,-37.71402473,144.93765764
10762,Walter St/West St,-37.71169524,144.9374046
10763,Ila St/West St,-37.70987168,144.93773875
10764,West St/Glenroy Rd,-37.70739284,144.93770539
10765,Sewell Reserve/Glenroy Rd,-37.70708278,144.9349236
10766,Northern Golf Club/Glenroy Rd,-37.70654888,144.93017439
10768,Glenroy College/Cardinal Rd,-37.70468726,144.92885372
10769,St Agnes Ct/Melbourne Ave,-37.70354051,144.92616345
10772,Jeffrey St/Lauricella Ave,-37.74565731,144.86138941
10773,St Damians Primary School/Settlement Rd ,-37.69764146,145.05647361
10774,Arcade Sq/West Gtwy,-37.74537607,144.85533728
10775,Sterling Dr/Norwood Dr,-37.74183769,144.85254564
10776,Bond Ct/Sterling Dr,-37.74175311,144.86077551
10778,Buckley St/Milleara Rd,-37.75213766,144.86144117
10779,Chaumont Dr/Milleara Rd,-37.75519703,144.86019534
10780,Holden Ave/Military Rd,-37.75702951,144.85987012
10781,Ridley Ave/Military Rd,-37.76090433,144.86134759
10782,Westminster Dr/Military Rd,-37.76347411,144.86242007
10783,Alexander St/Military Rd,-37.76712599,144.86402907
10784,Riverside Ave/Military Rd,-37.76962307,144.86506976
10785,Glenside St/Canning St,-37.77076024,144.86864718
10786,Rosamond Rd/Mitchell St,-37.7832438,144.88477541
10787,Prince St/Mitchell St,-37.78350763,144.88742487
10788,Birdwood St/Gordon St,-37.7852221,144.89056676
10789,Owen St/Gordon St,-37.78746778,144.89016225
1079,Preston Primary School/Tyler St,-37.73085628,145.01143231
10790,Ballarat Rd/Gordon St,-37.79079023,144.88949995
10791,Commercial Rd/Ballarat Rd,-37.79211125,144.8923127
10792,Victoria University/Ballarat Rd,-37.79301253,144.89534187
10793,Wentworth Dr/McCubbin Dr,-37.69370345,144.77467472
10794,Overnewton College/Robertsons Rd,-37.69125971,144.77363643
10795,64 Robertsons Rd,-37.68716304,144.77764847
10796,Carnarvon Cl/Palmerston Cres,-37.68596344,144.78046246
10797,Warrego Pl/Palmerston Cres,-37.68859185,144.78269743
10798,MacKenzie Cl/Wellesley Dr,-37.69038404,144.78695332
10799,Lawson Ct/Wellesley Dr,-37.69203088,144.79019308
108,Ramu Pde/Waterdale Rd,-37.73571087,145.04899902
1080,Tennyson Ave/Tyler St,-37.73053912,145.00866085
10800,Nordic Ave/Wellesley Dr,-37.6941928,144.79303213
10801,Penrhyn Ct/Verona Dr,-37.69555572,144.79555478
10802,Truro Cres/Verona Dr,-37.69883998,144.79721542
10803,Taylors Lakes SC/Melton Hwy,-37.70173138,144.80052106
10804,Wyperfeld Ave/Sunshine Ave,-37.71094189,144.80393531
10806,Swindon Cres/Odessa Ave,-37.71557726,144.80556811
10807,Snowdon Cl/Odessa Ave,-37.71547677,144.8074315
10808,Keilor Downs Sec Col/Odessa Ave,-37.71553432,144.81052674
10809,Cromer Pl/Odessa Ave,-37.71833977,144.81213447
1081,McLaughlin Cres/Redleap Ave,-37.66178228,145.06633093
10810,Tarella Dr/Odessa Ave,-37.72118363,144.81241382
10811,Antwerp Dr/Odessa Ave,-37.72396941,144.81199149
10812,Dongola Rd/Sunshine Ave,-37.72659921,144.81239061
10813,Green Gully Rd/Sunshine Ave,-37.73056729,144.81595005
10814,Fox St/Sunshine Ave,-37.73331028,144.81808207
10815,Norman St/Sunshine Ave,-37.73525121,144.81972715
10816,William St/Sunshine Ave,-37.7383362,144.82232601
10817,Harcourt Ave/Sunshine Ave,-37.7406742,144.82449304
10818,Ashton Ave/Sunshine Ave,-37.74310936,144.82655521
10819,Sage Ave/Sunshine Ave,-37.74516873,144.8282767
1082,High St/Station St,-37.72971303,145.0051088
10820,Sage Ave/Main Rd East,-37.74759239,144.82825124
10821,Wahgunyah Dr/Main Rd East,-37.74730171,144.82617153
10822,Branston Rd/Main Rd East,-37.74710232,144.82415725
10823,Cowper Ave/Main Rd East,-37.74669424,144.82109366
10824,Errington Rd/Main Rd East,-37.74607625,144.81546011
10825,Leonard Ave/Main Rd East,-37.74560444,144.8118878
10826,Errington Reserve/Main Rd East,-37.74453954,144.80309003
10827,Edward St/Settlement Rd,-37.69742049,145.05455128
10828,Outlook Rise/Settlement Rd,-37.69704921,145.05116982
10829,Latrobe Ave/Settlement Rd,-37.69624562,145.04672229
1083,Clyde St/Raleigh Rd #42,-37.76969864,144.89884126
10830,Greenhills Rd/Settlement Rd,-37.6954474,145.04423678
10831,Norris Bank Primary School/Settlement Rd ,-37.69470295,145.04119418
10832,Apex Ct/Settlement Rd,-37.69420238,145.03602441
10833,Brand Dr/Settlement Rd,-37.69386441,145.0330506
10834,Hanrahan St/Wood St,-37.6932312,145.02697717
10836,Cheddar Rd/Keon Pde,-37.69614289,145.02164887
10837,Finton Gr/Keon Pde,-37.69557822,145.01646951
10838,Keon Park Station/Keon Pde,-37.69513111,145.01293159
10839,High St/Mahoneys Rd,-37.69487708,145.01015976
1084,Moorhead Dr/Redleap Ave,-37.66356163,145.06492436
10840,William Ruthven Secondary College/Mahoneys Rd ,-37.69409124,145.00259353
10841,Long St/Mahoneys Rd,-37.69370081,144.99870267
10842,Callander St/Mahoneys Rd,-37.69331257,144.99494788
10843,Hughes Pde/Mahoneys Rd,-37.69284358,144.9901633
10844,Lawson Cres/Mahoneys Rd,-37.69239938,144.98578637
10845,Lockton Ave/Mahoneys Rd,-37.69209424,144.98269859
10846,Sheargold Ct/Mahoneys Rd,-37.69162708,144.9780502
10847,Phillip St/Mahoneys Rd,-37.69136654,144.9754716
10848,Janice Ct/Mahoneys Rd,-37.69022785,144.96325482
10849,Campbellfield Plaza/Mahoneys Rd,-37.68986181,144.959806
1085,Buckmaster Dr/Redleap Ave,-37.6651314,145.06557514
10850,Concord Cct/Oakwood Rd,-37.75081471,144.76873131
10851,Woodland Dr/Oakwood Rd,-37.74631517,144.77001269
10852,Kardinia Dr/Oakwood Rd,-37.74450981,144.7703279
10854,Delamare Dr/Evergreen Ave,-37.74339473,144.76522061
10855,Wintersun Dr/Evergreen Ave,-37.74461154,144.76333421
10856,Stephen Calleja Reserve/Opie Rd,-37.74404914,144.76171698
10857,Main Rd West/Opie Rd,-37.74188665,144.76315524
10858,Opie Rd/Main Rd West,-37.74042473,144.76494682
10859,Entally Dr/Main Rd West,-37.74061075,144.76667744
1086,Mill Park Stables Shopping Centre/Redleap Ave ,-37.66765913,145.06309468
10861,Copperfield College/Gillespie Rd,-37.73332465,144.77166203
10862,Maplewood Rd/Gillespie Rd,-37.7337061,144.77515675
10863,Beverley St/Gillespie Rd,-37.73417318,144.77937515
10864,Kings Rd/Gillespie Rd,-37.73437072,144.7817294
10865,Glenrosa Ct/Gillespie Rd,-37.73470492,144.78512351
10866,Atheldene Dr/Gillespie Rd,-37.73503619,144.7888468
10867,Andrew Rd/Jamieson St,-37.73610393,144.78859944
10868,John St/Jamieson St,-37.73894743,144.78693749
10869,Shirley St/James St,-37.73964649,144.78865287
10870,James St/Emily St,-37.74039196,144.79236412
10871,Elizabeth St/Emily St,-37.74274361,144.79186301
10872,Scott Ave/Main Rd West,-37.7437244,144.79467095
10873,Tintern Gr/Bernard St,-37.95282291,145.0592817
10874,Parnell St/Bernard St,-37.95323386,145.06234376
10875,Christensen St/Bernard St,-37.95355319,145.06477092
10876,Cheltenham Sec Col/Bernard St,-37.95396699,145.06801508
10877,Dissik St/Bernard St,-37.95439047,145.07130454
10878,Kingston Centre/Bernard St,-37.95460198,145.07596533
10879,Kingston Centre/Kingston Rd,-37.95326552,145.07800327
1088,Childs Rd/Betula Ave,-37.66870404,145.06032387
10880,Byng Ave/Kingston Rd,-37.95360096,145.08088533
10881,Ball Rd/Kingston Rd,-37.95392955,145.08390418
10882,Kingston Heath Golf Club/Kingston Rd,-37.95429575,145.0870245
10883,Kingston Rd,-37.95471172,145.09043949
10884,Pietro Rd/Kingston Rd,-37.95522009,145.09455777
10885,Old Dandenong Rd/Kingston Rd,-37.9557934,145.09935732
10887,Peace Rd/Kingston Rd,-37.95680718,145.1074577
10888,Heatherton Christian College/Kingston Rd,-37.95738587,145.11206384
10889,Kingston Rd/Clayton Rd,-37.95674191,145.11349166
10890,Ryans Rd/Clayton Rd,-37.95110953,145.1146145
10891,Tully Rd/Clayton Rd,-37.94727402,145.11539536
10892,Bodley St/Clayton Rd,-37.94465022,145.11587207
10893,Wellington Rd/Blackburn Rd,-37.91782718,145.13997929
10895,Princes Hwy/Blackburn Rd,-37.92060372,145.13946567
109,Yarra Bend Park/Studley Park Rd,-37.80118878,145.0063219
10900,Centre Rd/Springs Rd,-37.92808914,145.1098554
10901,Bond St/Springs Rd,-37.93020701,145.10930055
10902,Namatjira Park/Springs Rd,-37.93325252,145.10871051
10903,St Andrews PS/Bunney Rd,-37.93461425,145.1082091
10906,Wilson St/Argus St,-37.95847942,145.06074903
10907,Rosewarne Ave/Argus St,-37.95881079,145.06335815
10909,Primrose Ave/Cavanagh St,-37.95678203,145.06657552
10914,Bourke Rd/Clarinda Rd,-37.93996467,145.09799006
10915,Elliminya Ct/Clarinda Rd,-37.93820406,145.09834267
10916,Tatiara Ave/Clarinda Rd,-37.93526634,145.09890766
10917,Clarinda Rd/Bunney Rd,-37.93357154,145.09998672
10918,Hanover St/Albion St,-37.75990842,144.95445485
1092,Alexandra Ave/Punt Rd,-37.83086439,144.98776441
10925,Cantala Ave/Lower Plenty Rd,-37.73599366,145.07716783
10926,Kambea Cres/Lower Plenty Rd,-37.73383883,145.08097956
10927,Graham Rd/Lower Plenty Rd,-37.73290246,145.08269447
10928,Heidelberg Golf Club/Main Rd,-37.72903968,145.11024165
10929,Old Eltham Rd/Main Rd,-37.7281551,145.11184131
1093,Acland St/Barkly St,-37.86925167,144.98076364
10930,Prosperity Rd/Main Rd ,-37.72577034,145.11599785
10931,Cheverton Rd/Main Rd,-37.72503357,145.11952245
10932,Beleura Gr/Main Rd,-37.72563284,145.1231948
10934,Main Rd/Bridge St,-37.71885066,145.14450201
10935,Susan St/Bridge St,-37.71835193,145.14030542
10937,Adam Cres/Sherbourne Rd,-37.71742993,145.13727668
10938,Rattray Rd/Sherbourne Rd,-37.71497833,145.13497841
10939,Karingal Dr/Sherbourne Rd,-37.71275103,145.13205073
1094,Park Orchards Tennis Club/Park Rd,-37.77778963,145.21447021
10940,Calrossie Ave/Sherbourne Rd,-37.71128145,145.12973942
10941,Baldwin Ave/Sherbourne Rd,-37.7099302,145.12693745
10942,Hughes St/Sherbourne Rd,-37.70967482,145.12278072
10943,Sherbourne Rd/Mountain View Rd,-37.70915757,145.11973099
10944,Community Hall/Mountain View Rd,-37.70791772,145.11827633
10945,River St/Mountain View Rd,-37.70620489,145.11655011
10946,Harold St/Mountain View Rd,-37.7031841,145.11587796
10947,St Helena Rd/Mountain View Rd,-37.7004838,145.11495954
10948,Henry St/Ester St,-37.70552573,145.10006312
10949,Vermont Pde/McDowell St,-37.70653256,145.09655504
1095,Brighton Rd/Glen Huntly Rd,-37.88365098,144.99597027
10950,Medbury Ave/Delta Rd,-37.70933694,145.0960976
10951,Sainsbury Ave/Delta Rd,-37.71098531,145.09548822
10952,Nepean St/Delta Rd,-37.71253792,145.0945296
10953,Delta Rd/Elder St,-37.71443084,145.09288154
10954,Elder Street Reserve/63 Elder St,-37.71411542,145.09009891
10955,Yerrawa Dr/Elder St,-37.7130596,145.08778912
10956,Papua St/Elder St,-37.71186146,145.08615235
10959,Watsonia Rd/Greensborough Hwy,-37.71500338,145.08262278
1096,Tennyson St/Glen Huntly Rd,-37.8831262,144.99161837
10960,Torbay St/Greensborough Hwy,-37.71831891,145.08145953
10961,Yallambie Rd/Greensborough Hwy,-37.72034115,145.08112372
10962,Simpson Army Barracks/Greensborough Hwy,-37.721501,145.08095765
10963,Strathallan Rd/Greensborough Hwy,-37.72463749,145.08042286
10964,O'Keefe St/Bell St,-37.74624716,145.01454999
10965,Liberty Pde/Bell St,-37.74917392,145.03701209
10966,The Mall SC/Bell St,-37.74991418,145.04196372
10967,Melbourne Polytechnic/Bell St,-37.75076246,145.04528958
10968,Gotha St/Bell St,-37.7517801,145.04796411
10969,Edwin St/Bell St,-37.75277834,145.05055977
1097,Daley St/Glen Huntly Rd,-37.88298737,144.9903487
10970,Myrtle St/Bell St,-37.75386229,145.05343701
10971,Upper Heidelberg Rd/Bell St,-37.75475908,145.05589927
10972,Warringal SC/Cape St,-37.75579159,145.06716617
10973,Heidelberg Primary School/Darebin St ,-37.75464362,145.06970452
10974,Brown St/Rosanna Rd,-37.75212404,145.07048506
10975,Reid St/Rosanna Rd,-37.7500127,145.07088039
10976,St James Rd/Rosanna Rd,-37.74857548,145.07116741
10977,Station Rd/Rosanna Rd,-37.74599626,145.0716089
10978,Millicent St/Lower Plenty Rd,-37.74041555,145.06926845
10979,Arden Cres/Lower Plenty Rd,-37.7393551,145.07110036
1098,Elwood Canal/Glen Huntly Rd,-37.88267643,144.98744642
10980,Milford Gr/Lower Plenty Rd,-37.73798879,145.0735189
10981,Cantala Ave/Lower Plenty Rd,-37.73612119,145.07669928
10982,Kambea Cres/Lower Plenty Rd,-37.73400075,145.08040801
10983,Graham Rd/Lower Plenty Rd,-37.73271089,145.0825519
10985,Old Eltham Rd/Main Rd,-37.72820744,145.11117053
10986,Para Rd/Main Rd,-37.72654953,145.11400384
10987,Kett St/Main Rd,-37.72486422,145.1196402
10988,Looker Rd/Main Rd,-37.72532851,145.12275999
10989,Library Pl/Main Rd,-37.71573164,145.1473139
1099,Elwood College/Glen Huntly Rd,-37.88231824,144.98442039
10990,Alistair Knox Park/Main Rd,-37.71838972,145.14613586
10991,Main Rd/Bridge St,-37.7187703,145.14454939
10992,Susan St/Bridge St,-37.71834626,145.14108837
10994,Adam Cres/Sherbourne Rd,-37.717351,145.1374148
10995,Stephen St/Sherbourne Rd,-37.71488103,145.1350943
10996,Karingal Dr/Sherbourne Rd,-37.71290685,145.13278419
10997,Elmo Rd/Sherbourne Rd,-37.71130361,145.12999978
10998,Hyacinth St/Sherbourne Rd,-37.70980372,145.12691795
10999,Hughes St/Sherbourne Rd,-37.70958019,145.12193233
11,Newton Gr/Gallaghers Rd,-37.87744457,145.17856045
110,Clifton Gr/St Elmo Rd,-37.76384196,145.0460237
1100,Broadway/Glen Huntly Rd,-37.88211832,144.98222007
11000,Sherbourne Rd/Mountain View Rd,-37.70891326,145.1196691
11001,Community Hall/Mountain View Rd,-37.70768527,145.11782847
11002,River St/Mountain View Rd,-37.70649624,145.11673557
11003,Harold St/Mountain View Rd,-37.70302376,145.11599544
11004,St Helena Rd/Mountain View Rd,-37.7003595,145.11507612
11005,Henry St/Ester St,-37.70535548,145.10012418
11006,Vermont Pde/McDowell St,-37.70643255,145.09650088
11007,Medbury Ave/Delta Rd,-37.70931746,145.09600735
11008,Sainsbury Ave/Delta Rd,-37.71104617,145.09535054
11009,Nepean St/Delta Rd,-37.71265173,145.09432249
1101,Addison St/Glen Huntly Rd,-37.88190367,144.98021346
11010,Delta Rd/Elder St,-37.71431116,145.09272579
11011,Elder Street Reserve/63 Elder St,-37.71404353,145.0901121
11012,Yerrawa Dr/Elder St,-37.71302467,145.08785808
11013,Papua St/Elder St,-37.71179988,145.08624469
11015,Richards Ave/Greensborough Hwy ,-37.71479357,145.08191349
11016,Torbay St/Greensborough Hwy,-37.7180288,145.08135356
11017,Simpson Army Barracks/Greensborough Hwy,-37.72162361,145.08073892
11018,Strathallan Rd/Greensborough Hwy,-37.72376332,145.08042273
11019,Oban Way/Greensborough Hwy,-37.72660254,145.07989558
1102,Glen Huntly Rd/Barkly St,-37.88160417,144.97851616
11020,Erskine Rd/Greensborough Hwy,-37.72946989,145.07943573
11026,Crampton Cres/Finlayson St,-37.73462525,145.07118908
11027,Pyalong Ave/Finlayson St,-37.73726306,145.06937305
11028,Cremin Ct/Finlayson St,-37.73983938,145.06820533
1103,Elwood Canal/354 Barkly St,-37.87892756,144.97903275
11032,Frankston-Flinders Rd/Golf Links Rd,-38.16443073,145.13763231
11033,Brooklyn Ave/Golf Links Rd,-38.16737365,145.14136982
11034,Mount Erin College/Golf Links Rd,-38.1734665,145.14885193
11035,Heatherhill Rd/Robinsons Rd,-38.17583735,145.15405461
11036,Barretts Rd/Robinsons Rd,-38.1792231,145.17869691
11037,Warrandyte Rd/Robinsons Rd,-38.1801356,145.18641456
11038,Gardeners Rd/Robinsons Rd,-38.18084887,145.19234493
11039,Nirvana Cl/Robinsons Rd,-38.18133667,145.1965228
1104,Meredith St/Barkly St,-37.87685269,144.97943054
11040,Donald Rd/Robinsons Rd,-38.18219529,145.2037399
11041,West Rd/Robinsons Rd,-38.18375315,145.20838264
11042,Western Port Hwy/Robinsons Rd,-38.1851254,145.21980059
11043,Middle Rd/Robinsons Rd,-38.18617577,145.22906885
11044,Hansen Park/Durham Rd,-37.80119573,145.3224662
11045,North Rd/Durham Rd,-37.80162547,145.31910583
11046,Beatrice St/Durham Rd,-37.80179845,145.3179661
11049,Lomond Ave/Hawthory Rd,-37.79860159,145.31309803
1105,Dickens St/Barkly St,-37.87381694,144.98002508
11050,Kilsyth Centenary Swimming Centre/Hawthory Rd,-37.79556311,145.31363279
11051,Cambridge Rd/Hawthory Rd,-37.79245353,145.31423725
11052,Yarra Hills Sec Col/Cambridge Rd,-37.79142224,145.31396542
11053,Mooroolbark Bowls Club/Hull Rd,-37.79039932,145.3079925
11054,Mcilraith Ct/Hull Rd,-37.79117716,145.30630536
11055,Kurrajong Ave/Hull Rd,-37.79370562,145.30164809
11056,Kincumber Dr/Hull Rd,-37.79450284,145.29818867
11058,Glamis Ct/Hull Rd,-37.79587223,145.29379608
11059,Lacey St/Hewish Rd,-37.79696623,145.28906897
1106,Blessington St/Barkly St,-37.87098778,144.98057983
11060,Sturt St/Lacey St,-37.79574227,145.28732549
11061,Main St/Lacey St,-37.79505657,145.2823215
11062,Karingal Dr/Lucerne Cres,-38.1499158,145.16642816
11063,Yarla Ct/Lucerne Cres,-38.14956631,145.16828561
11064,Oleosa Ct/Lucerne Cres,-38.14823858,145.16982514
11065,Pembroke Ave/Lucerne Cres,-38.14638653,145.16894712
11066,Escabon Gr/Havana Cres,-38.14423271,145.16894391
11067,Havana Cres/Inglenook Cres,-38.14217336,145.16864167
11068,Dalpura Cct/Skye Rd,-38.14025553,145.16874668
11069,Warrawee Cct/Dalpura Cct,-38.1378521,145.16314747
1107,Acland St/Barkly St,-37.86938912,144.98089631
11070,Palkana St/Dalpura Cct,-38.13653103,145.16510883
11071,Illira Ave/Dalpura Cct,-38.13646141,145.16930932
11072,Elenya Ct/Dalpura Cct,-38.13798176,145.17029822
11073,Dalpura Cct/Skye Rd,-38.14016634,145.16880596
11074,Havana Cres/Inglenook Cres,-38.14242363,145.1685099
11075,Escabon Gr/Havana Cres,-38.14428765,145.1689996
11076,Pembroke Ave/Lucerne Cres,-38.14620968,145.16858638
11077,Oleosa Ct/Lucerne Cres,-38.14830252,145.16988059
11078,Yarla Ct/Lucerne Cres,-38.14963079,145.16837529
11079,Karingal Dr/Lucerne Cres,-38.14997601,145.16624406
1108,Carlisle St/Barkly St,-37.86695472,144.98134926
11080,Chisholm Institute of TAFE/Beach St,-38.14190665,145.12886004
11081,Regina St/Cambridge Rd,-37.80049139,145.32997837
11082,Balmoral St/Durham Rd,-37.80066539,145.32699867
11083,Elizabeth Bridge Reserve/Durham Rd,-37.80109368,145.32416085
11084,Hansen Park/Durham Rd,-37.80129305,145.32233906
11085,Charles St/Durham Rd,-37.80192166,145.31775885
11086,Liverpool Rd/Mt Dandenong Rd,-37.8026958,145.31391355
11088,Amelia Ct/Hawthory Rd,-37.79981312,145.3127411
11089,Lomond Ave/Hawthory Rd,-37.79748492,145.31315751
1109,Inkerman St/Barkly St,-37.8637296,144.98193743
11090,Kilsyth Centenary Swimming Centre/Hawthory Rd,-37.79530054,145.3135479
11091,Cambridge Rd/Hawthory Rd,-37.79258688,145.3141093
11093,Mooroolbark Bowls Club/Hull Rd,-37.79031265,145.30823297
11094,Nuraylia Ave/Hull Rd,-37.79164518,145.30563599
11095,Kurrajong Ave/Hull Rd,-37.79415871,145.30119479
11096,Silverley Rd/Hull Rd,-37.7945659,145.29818722
11097,Henty Ct/Hull Rd,-37.79591826,145.29386317
11098,Sturt St/Lacey St,-37.79580418,145.28724456
11099,Main St/Lacey St,-37.7950998,145.28219558
111,Ivanhoe Civic Centre/Upper Heidelberg Rd,-37.76623863,145.04544977
1110,Waterloo Cres/Barkly St,-37.86196861,144.9822469
11100,Karingal Hub SC/Karingal Dr,-38.15227468,145.16513658
11101,Naranga Cres/Karingal Dr,-38.14961436,145.16559124
11102,Lucerne Cres/Karingal Dr,-38.146985,145.1651436
11103,Iona Ct/Karingal Dr,-38.14539103,145.1634833
11104,Bogong Ct/Karingal Dr,-38.14442796,145.16183005
11105,Uniting Church/Karingal Dr,-38.14278994,145.15908697
11106,Lindrum Rd/Karingal Dr,-38.14170177,145.15750545
11107,Devon Ct/Karingal Dr,-38.14072961,145.15585259
11108,Flam St/Ashleigh Ave,-38.13884379,145.15226028
11109,Golconda Ave/Ashleigh Ave,-38.13976619,145.14846026
1111,Princes St/Barkly St,-37.86002805,144.98259536
11110,Coral St/Ashleigh Ave,-38.14334204,145.14549436
11111,Frankston East PS/Ashleigh Ave,-38.14570914,145.14473835
11112,Ashleigh Ave/Beach St,-38.14708896,145.1430944
11113,Kelman St/Beach St,-38.1458665,145.1404438
11114,Franklin Ct/Beach St,-38.14477389,145.13802961
11115,James St/Beach St,-38.14353755,145.13451231
11116,Rex St/Beach St,-38.1428471,145.13189405
11117,Chisholm Institute Of TAFE/Beach St,-38.14204285,145.12892503
11118,Skye Rd/Karingal Dr,-38.13666374,145.15402672
1112,St Kilda Junction/Barkly St,-37.85771579,144.98334038
11124,Bald Hill Park/Bunney Rd,-37.93419956,145.10484041
11126,Murawa St/Foot St,-38.15853792,145.13030671
11127,Payne St/Kambrook Rd,-37.87821259,145.03526251
11128,Towerhill Rd/Foot St,-38.16078454,145.12934766
11129,Frankston-Flinders Rd/Golf Links Rd,-38.16452878,145.13813203
1113,Union St/Punt Rd,-37.85324528,144.9838259
11130,Helvetia Ct/Towerhill Rd,-38.16239272,145.13300457
11131,Moorooduc Hwy/Hastings Rd,-38.15271513,145.13248678
11132,Millard St/Moorooduc Hwy,-38.15434483,145.1341
11137,McMurtry Way/Golf Links Rd,-38.16767274,145.1420471
11138,Wilgra Cres/Booran Rd,-37.88310865,145.03596242
11139,Frankston Golf Club/Golf Links Rd,-38.17007468,145.14520509
1114,High St/Punt Rd,-37.85024435,144.98435089
11140,Frankston Golf Club/Golf Links Rd,-38.17142785,145.14700861
11142,Belgrave Village/Belgrave Hwy,-37.90946552,145.35228026
11143,Winscombe Ave/Burwood Hwy,-37.90719203,145.3463253
11144,Sophia Gr/Burwood Hwy,-37.9063638,145.34254485
11145,Glenfern Rd/Burwood Hwy,-37.90611898,145.33796654
11146,Upwey Station/Main St,-37.90438244,145.33179544
11147,Upwey CFA/Morris Rd,-37.90301036,145.32909673
11148,Ferny Creek Ave/Burwood Hwy,-37.89377949,145.31564736
11149,Spring St/Station St,-37.88815557,145.2918615
1115,Greville St/Punt Rd,-37.84814145,144.98469228
11150,Alpine St/Station St,-37.88325854,145.29535172
11151,Mountain Gate SC/Ferntree Gully Rd,-37.88336297,145.27530292
11153,Merlynston Station/Lorensen Ave,-37.72140637,144.96049508
11154,Pearcedale Rd/Robinsons Rd,-38.1871845,145.23741357
11155,Victoria Rd/Pearcedale Rd,-38.19564985,145.23644441
11156,Rosella Ct/Pearcedale Rd,-38.20122111,145.23538497
11157,Pearcedale Village SC/Baxter-Tooradin Rd,-38.20260886,145.23298751
11158,Middle Rd/Baxter-Tooradin Rd,-38.20171599,145.22517503
11159,Western Port Hwy/Baxter-Tooradin Rd,-38.20045961,145.21482501
1116,Commercial Rd/Punt Rd,-37.84532889,144.98516661
11160,West Rd/Baxter-Tooradin Rd,-38.19973221,145.20553581
11161,Highfield Dr/Baxter-Tooradin Rd,-38.19935184,145.19249265
11162,Warrandyte Rd/Baxter-Tooradin Rd,-38.1991077,145.18310047
11163,St Kilda St/Baxter-Tooradin Rd,-38.19826831,145.17662374
11164,Baxter Station/Baxter-Tooradin Rd,-38.19529365,145.15752573
11166,Stornoway Dr/Baxter-Tooradin Rd,-38.19486184,145.15470476
11169,Japonica Gr/Poinciana St,-38.16438695,145.12694996
1117,Argo St/Punt Rd,-37.84346996,144.98554676
11170,Coniston Dr/Marykirk Dr,-37.9122499,145.19208025
11171,Chipping Hill Ct/Marykirk Dr,-37.91159347,145.19334755
11172,Harlingford Ct/Garnett Rd,-37.91109826,145.19572561
11173,Bladen St/Garnett Rd,-37.91287681,145.19828704
11174,Bellara Way/Garnett Rd,-37.9155168,145.20001995
11175,Tanya Pl/Garnett Rd,-37.91905368,145.19970621
11176,Whalley Dr/Garnett Rd,-37.92201123,145.19922454
11177,Carol St/Borg Cres,-37.89791111,145.22219361
11178,Sandvyk Ct/Borg Cres,-37.8965233,145.22040739
11179,Redcourt Reserve/Taunton Cres,-37.89546395,145.22008036
1118,Lang St/Punt Rd,-37.84084753,144.98607266
11180,Boyd Ct/Taunton Cres,-37.89464693,145.21849655
11181,Seville Gr/Berrabri Dr,-37.89344504,145.21768399
11182,Blake Ct/Berrabri Dr,-37.89176505,145.21624617
11183,Paulette Ct/Berrabri Dr,-37.89000372,145.21776697
11184,Somes St/George St,-37.88911181,145.2213591
11186,Kurnai Ave/Henty St,-37.71762005,144.98451354
11187,View St/Gilbert Rd,-37.71964325,144.99322842
11188,Carrington Rd/Gilbert Rd,-37.72217823,144.99285368
11189,Fulham Gr/Gilbert Rd,-37.72376855,144.99257249
1119,Toorak Rd/Punt Rd,-37.83789337,144.98669844
11190,Knox St/Gilbert Rd,-37.72555646,144.99225191
11191,Edwardes St/Kelsby St,-37.71486061,144.99815612
11192,Leamington St/Kelsby St,-37.71248852,144.99857162
11193,Griffiths St/Leamington St,-37.71163917,144.99525939
11194,Epstein St/Leamington St,-37.71131612,144.99269306
11195,Gill St/Banbury Rd,-37.71230671,144.98947869
11196,Edwardes St/Banbury Rd,-37.71399573,144.98917212
112,Ivanhoe SC/Upper Heidelberg Rd,-37.76651581,145.04531759
1120,Shipley St/Punt Rd,-37.8364204,144.98698847
1121,Domain Rd/Punt Rd,-37.83402275,144.98748543
1122,Alexandra Ave/Punt Rd,-37.83101395,144.98807848
1123,Swan St/Punt Rd,-37.8244422,144.98900681
1124,Rowena Pde/Punt Rd,-37.82112537,144.98950582
1125,Bridge Rd/Hoddle St,-37.81729782,144.99017768
11250,Coreen Ave/Balcombe Rd,-37.97839791,145.04133726
11251,Plummer Rd/Florence St,-37.98205968,145.05891016
11252,Davies St/Florence St,-37.98247255,145.06263374
11254,Patty St/Nepean Hwy,-37.97819368,145.06766455
11255,Latrobe St/Nepean Hwy,-37.97516399,145.06536466
11256,Evesham St/Nepean Hwy,-37.96999512,145.06122012
11257,Nepean Hwy/Playne St,-38.1444664,145.12098964
11258,Fernery Lane/Nepean Hwy,-38.15004606,145.11490096
11259,Grand View Gr/Nepean Hwy,-38.15234499,145.11271913
1126,West Richmond Railway Station/Hoddle St,-37.81518587,144.99051895
11260,Plummer Ave/Nepean Hwy,-38.15453047,145.10909072
11261,Grange Rd/Nepean Hwy,-38.15843832,145.10498381
11262,Bembridge Ave/Nepean Hwy,-38.1604494,145.10396161
11264,Daveys Bay Rd/Old Mornington Rd,-38.16802367,145.09700799
11265,Jacksons Rd/Old Mornington Rd,-38.17077212,145.09533842
11266,Toorak College/Old Mornington Rd,-38.1742572,145.09408331
11267,Richman Dr/Old Mornington Rd,-38.17682004,145.0931946
11268,Barton Dr/Old Mornington Rd,-38.17977717,145.09216995
11269,Mount Eliza SC/Mount Eliza Way,-38.18314205,145.09017556
1127,York St/Hoddle St,-37.81266151,144.99098497
11270,Claire Robinson Park Ct/Heatherton Rd ,-37.98192766,145.31386167
11271,Coonara Ave/Mount Eliza Way,-38.193866,145.09075182
11272,Wooralla Dr/Nepean Hwy ,-38.19546238,145.09083573
11273,Peninsula Grammar/Nepean Hwy,-38.19722366,145.08776368
11274,Kunyung Rd/Nepean Hwy,-38.19982834,145.08336758
11275,Volitans Ave/Nepean Hwy,-38.20330377,145.07877697
11276,George Vowell Aged Care/Nepean Hwy,-38.2075837,145.07325107
11277,Shotton Rd/Nepean Hwy,-38.21171379,145.06794547
11278,Oakbank Rd/Nepean Hwy,-38.21569615,145.06298585
11279,Peninsula Home SC/Nepean Hwy,-38.21920732,145.05842657
1128,Victoria Pde/Hoddle St,-37.81034374,144.99141128
11280,Carramar St/Bungower Rd,-38.22103196,145.05923476
11281,Fitzgerald St/Robertson Dr,-38.22363506,145.0629809
11282,Hardy St/Robertson Dr,-38.22569223,145.05986485
11283,Mornington Park PS/Robertson Dr,-38.22588077,145.05764369
11284,Jacana St/Robertson Dr,-38.2248127,145.05518182
11285,Egerton Rd/Wattletree Rd #43,-37.86170982,145.02275399
11288,Mornington Park/Esplanade,-38.21678227,145.03508734
11289,Townsend Lane/Esplanade,-38.22165852,145.03246599
1129,Langridge St/Hoddle St,-37.80694756,144.99201444
11290,Williams Rd/Esplanade,-38.22498009,145.03117705
11291,Webb St/Esplanade,-38.22663166,145.02917909
11292,Strachans Rd/Esplanade,-38.23042401,145.0264149
11293,Johns Rd/Esplanade,-38.23464709,145.02783164
11294,Fossil Beach/Esplanade,-38.24036401,145.02966522
11295,Bentons Rd/Esplanade,-38.24392875,145.02998031
11296,Shanns Ave/Esplanade,-38.25055053,145.02828168
11297,Craigie Rd/Esplanade,-38.2534776,145.02657982
11298,Keilor Golf Course/Calder Fwy,-37.6880438,144.78566211
113,Seddon St/Upper Heidelberg Rd,-37.76817578,145.04325313
1130,Gipps St/Hoddle St,-37.80476393,144.99238026
11301,Warland Rd/Carrington St,-37.93585189,145.0336604
11302,Dane Rd/Spring Rd,-37.94075073,145.03345018
11303,Besant St/Spring Rd,-37.94274377,145.03299877
11308,June St/Bluff Rd,-37.94480124,145.02241769
11309,Abberfield Nursing Home/Bluff Rd,-37.94829525,145.02173224
1131,Vere St/Hoddle St,-37.80280471,144.99269454
11310,Sandringham College/Bluff Rd,-37.95054026,145.02126231
11311,Bay Rd/Bluff Rd,-37.95477038,145.02040902
11313,Ebden Ave/Balcombe Rd,-37.97565469,145.01852743
11314,Cullinane St/Balcombe Rd,-37.97616084,145.02075656
11315,Hunter Ave/Balcombe Rd,-37.97649481,145.02400358
11316,Summerhill Rd/Balcombe Rd,-37.9767862,145.02632961
11317,Haydens Rd/Balcombe Rd,-37.9771857,145.0302694
11318,Beaumaris Sec Col/Balcombe Rd,-37.9775248,145.03330006
11319,Reserve Rd/Balcombe Rd,-37.97830838,145.03543088
1132,Truro St/Hoddle St,-37.79772776,144.99355883
11320,Dalgetty Rd/Balcombe Rd,-37.97825255,145.03964477
11321,Coreen Ave/Balcombe Rd,-37.97851358,145.04178958
11322,Haywood St/Balcombe Rd,-37.97883884,145.04454748
11323,Ancona St/Florence St,-37.98229221,145.05989457
11324,Davies St/Florence St,-37.98262887,145.06227668
11327,Royal Oak Hotel/Nepean Hwy,-37.97287419,145.06367163
11328,Nepean Hwy/Playne St,-38.14445605,145.12146916
11329,Frankston Pier/Nepean Hwy,-38.14752486,145.1167118
1133,Noone St/Hoddle St,-37.79356765,144.99428463
11330,Fernery Lane/Nepean Hwy,-38.14989201,145.11484787
11331,Grand View Gr/Nepean Hwy,-38.15179164,145.11305293
11332,Beachside Car Park/Nepean Hwy,-38.154379,145.10863813
11333,Grange Rd/Nepean Hwy,-38.15809437,145.10489
11334,Bembridge Ave/Nepean Hwy,-38.15985581,145.10403405
11335,Ellenvale Dr/Kurrajong Rd,-38.00251879,145.31629434
11336,Daveys Bay Rd/Old Mornington Rd,-38.16835029,145.09658858
11337,Stephens Rd/Old Mornington Rd,-38.17147743,145.09493195
11338,Toorak College/Old Mornington Rd,-38.17471252,145.09382031
11339,Richman Dr/Old Mornington Rd,-38.1767465,145.09310519
1134,North Tce/Hoddle St,-37.79070174,144.99480501
11340,Barton Dr/Old Mornington Rd,-38.17959627,145.09212901
11341,Mount Eliza SC/Mount Eliza Way,-38.18325905,145.08961308
11342,Wimborne Ave/Mount Eliza Way,-38.18695179,145.08949377
11343,Coonara Ave/Mount Eliza Way,-38.19382737,145.09059297
11344,Koetong Pde/Nepean Hwy,-38.19623285,145.08889723
11345,Kunyung Rd/Nepean Hwy,-38.19909134,145.08403781
11346,Volitans Ave/Nepean Hwy,-38.20269631,145.07910128
11347,High St/Trethowan Ave,-37.68485557,144.55462044
11348,Helen Ct/Trethowan Ave,-37.68428665,144.55109009
11349,Bulmans Rd/Westlake Dr,-37.68287825,144.54966241
1135,Clifton Hill Station/Hoddle St,-37.78868923,144.99516602
11350,Jonson Ave/Westlake Dr,-37.68229863,144.5473571
11359,Galilee Bvd/Centenary Ave,-37.67217789,144.56599961
1136,Alva Ave/Park Rd,-37.77792155,145.21187826
11360,Navan Park/Coburns Rd,-37.67090104,144.57093883
11361,Coburns Rd/McBurnie Dr,-37.66781219,144.57191246
11362,Lagarna Dr/Adam Way,-37.66863772,144.57436823
11363,Bree Ct/Lagarna Dr,-37.67136938,144.57574172
11366,The Grove/Caroline Springs Bvd,-37.74196795,144.73580412
11367,Mitchell St/Hampstead Rd,-37.78120277,144.87152642
11368,Emu Rd/Hampstead Rd,-37.7786082,144.87556334
11369,Wattle Rd/Hampstead Rd,-37.77673265,144.87850084
1137,Kebun Ct/Park Rd,-37.78119999,145.21056158
11370,Williamson Rd/Rosamond Rd,-37.77656564,144.88524962
11371,Lindenow St/Rosamond Rd,-37.77956585,144.88470995
11372,Pridham St/Rosamond Rd,-37.7814068,144.8843509
11373,Mitchell St/Rosamond Rd,-37.78347374,144.8840308
11374,Inkerman St/Rosamond Rd,-37.78678776,144.88340258
11375,Nicholson St/Buckley St,-37.80402215,144.89822088
11378,Buckley St/Victoria St,-37.80371727,144.89225535
1138,Enfield Ave/Park Rd,-37.78475813,145.20748931
11380,Navan Park/Coburns Rd,-37.67160779,144.57068904
11384,Galilee Bvd/Centenary Ave,-37.67207146,144.56608245
11385,The Crossing/Caroline Springs Bvd,-37.73552854,144.74069799
11386,Coburns Rd/McBurnie Dr,-37.6676716,144.57208708
11387,Lagarna Dr/Adam Way,-37.66896354,144.57443697
11388,Bree Ct/Lagarna Dr,-37.67165064,144.57583459
11389,The Grove/Caroline Springs Bvd,-37.7423664,144.73590545
1139,396 Park Rd,-37.78627744,145.20310341
11390,Harvester Rd/Ballarat Rd,-37.7770206,144.83000153
11391,Keith St/Hampstead Rd,-37.78110246,144.87146117
11392,Emu Rd/Hampstead Rd,-37.77883194,144.87497788
11393,Mt Dandenong Rd/Canterbury Rd,-37.81233731,145.33661825
11394,River St/Rosamond Rd,-37.77893984,144.88497759
11395,Marsh St/Rosamond Rd,-37.78088867,144.88460411
11396,Ash Gr/Canterbury Rd,-37.81408765,145.33229624
11397,Mitchell St/Rosamond Rd,-37.78263995,144.88427032
11398,Delacey St/Rosamond Rd,-37.78544221,144.88374755
114,Upper Heidelberg Rd/Seddon St,-37.76875455,145.0433741
1140,Whitefriars College/Park Rd,-37.79330663,145.19836775
11400,Albert St/Buckley St ,-37.80391868,144.89646336
11402,Victoria St/Buckley St,-37.80343615,144.89266086
11403,Austin St/Victoria St,-37.80551686,144.89210196
11404,Gamon St/Charles St,-37.80659072,144.89067437
11405,Henry St/Charles St,-37.80618042,144.8873922
11407,Altona North Park & Ride/Millers Rd,-37.84686888,144.84469485
1141,McKean St/Dorking Rd,-37.8129975,145.13182167
11414,Ryans Rd/Clayton Rd,-37.95112937,145.1147278
11415,Tully Rd/Clayton Rd,-37.9475722,145.11544464
11416,Fraser Rd/Clayton Rd,-37.94449981,145.11604661
11417,Wellington Rd/Blackburn Rd,-37.9170595,145.1398735
11418,Princes Hwy/Blackburn Rd,-37.92076245,145.13924553
1142,Tyne St/Dorking Rd,-37.81093999,145.13221431
11423,Centre Rd/Springs Rd,-37.92806047,145.10975374
11424,Bond St/Springs Rd,-37.93030793,145.10941174
11425,Namatjira Park/Springs Rd,-37.93338929,145.1088094
11426,St Andrews Primary School/Bunney Rd ,-37.93460163,145.10742432
11427,Bald Hill Park/Bunney Rd,-37.9342606,145.10471368
11428,Clarinda Rd/Bunney Rd,-37.93366327,145.10008676
11429,Tatiara Ave/Clarinda Rd,-37.93552923,145.09900329
1143,Archangel Michael Monastery/Park Rd,-37.7977696,145.1949657
11430,Elliminya Ct/Clarinda Rd,-37.93828734,145.09847707
11431,Bourke Rd/Clarinda Rd,-37.93998507,145.09813746
11435,Primrose Ave/Cavanagh St,-37.95637948,145.0667568
11436,North Cheltenham Preschool/Friendship Sq,-37.95988841,145.06641438
11437,Cavanagh St/Friendship Sq,-37.95867816,145.06679896
11438,Fairview Ave/Argus St,-37.95908511,145.06469401
11439,Rosewarne Ave/Argus St,-37.9588975,145.063151
1144,Savaris Ct/Park Rd,-37.80172902,145.19164367
11440,Wilson St/Argus St,-37.9585984,145.06085971
11441,Kimberley Dr/Black Springs Rd,-37.75761412,145.31060133
11444,Keilor Downs Sec Col/Wanaka Dr,-37.71479972,144.81027611
11445,Brushy Park Rd/Black Springs Rd,-37.75506935,145.29099936
11446,Harris Rd/Brushy Park Rd,-37.74496569,145.28287863
11447,Toppings Rd/Homestead Rd,-37.73901786,145.28227842
11448,Jumping Creek Rd/Homestead Rd,-37.73490857,145.28291808
11449,Dudley Rd/Jumping Creek Rd,-37.73607588,145.27275734
1145,Tunstall Square SC/Tunstall Rd,-37.79149481,145.17086125
11451,Harrow St/William St,-37.82218868,145.12778401
11452,Glenmore Street Reserve/William St,-37.82335633,145.12753864
11453,Albion Rd/William St,-37.82450633,145.12731644
11454,Victoria St/Albion Rd,-37.82502222,145.12972337
11455,Cherryhinton St/Barkly St,-37.82645456,145.13025529
11456,Jolie Gr/Barkly St,-37.82768546,145.13001971
11457,Canterbury Rd/Barkly St,-37.82923092,145.12973073
11458,Wembley Park/Canterbury Rd,-37.83002945,145.13348281
11459,Middleborough Rd/Canterbury Rd,-37.83045327,145.13748301
1146,Tunstall Rd/St Clems Rd,-37.79687634,145.16920666
11460,Pakenham St/Canterbury Rd,-37.83079346,145.14019004
11462,Donald St/Canterbury Rd,-37.83115859,145.14333961
11463,Wreford Rd/Canterbury Rd,-37.83147651,145.14578593
11464,Canterbury Rd/Main St,-37.83157114,145.14836283
11465,Molleton St/Main St,-37.82884908,145.14890809
11466,Molleton St/Main St,-37.82875756,145.14881948
11467,Heath St/Main St,-37.82763472,145.14905205
11469,Linum St/Main St,-37.82450282,145.14932344
1147,Thomas St/Greendale Rd,-37.79759772,145.16517974
11470,The Avenue/Main St,-37.82339763,145.14953283
11473,Nodosa Gr/Scarlet Oak Ave,-37.65954886,144.56841853
11475,Covenant House Aged Care/Blackburn Rd,-37.83230036,145.15635521
11476,Lagoona Ct/Canterbury Rd,-37.8329895,145.15892874
11477,Pacific Way/Mahoneys Rd,-37.8386301,145.16579982
11478,Paul Rd/Mahoneys Rd,-37.84026576,145.16550929
11479,Mahoneys Reserve/Mahoneys Rd,-37.84369092,145.16496985
1148,Kenneth St/Thompsons Rd,-37.77362238,145.09514229
11480,Romoly Dr/Mahoneys Rd,-37.84550674,145.16467482
11481,St Thomas Ret Village/Hawthorn Rd,-37.84649899,145.16704819
11482,Echunga Cl/Hawthorn Rd,-37.84751733,145.16936414
11483,Hawthorn Rd/Springvale Rd,-37.84757933,145.17045364
11485,Springvale Rd/Parkmore Rd,-37.84116381,145.17225996
11486,Cherryl St/Parkmore Rd,-37.84147196,145.17469561
11487,Everglade Ave/Parkmore Rd,-37.84176806,145.17693839
11488,Hampshire Rd/Parkmore Rd,-37.8420055,145.17888717
11489,Michael Ct/Hampshire Rd,-37.84338592,145.17898959
1149,12 Maxia Rd,-37.79776268,145.15785021
11490,Longbrae Ave/Jolimont Rd,-37.84401765,145.18021277
11491,Stevens Rd/Jolimont Rd,-37.84427428,145.1822407
11492,Wingrove St/Stevens Rd,-37.8429496,145.18283007
11493,Kingsley Ave/Stevens Rd,-37.84151208,145.18311536
11494,Husband Rd/Stevens Rd,-37.83998448,145.18340285
11495,Brentford Square SC/Stevens Rd,-37.83776506,145.18441183
11496,Rooks Rd/Canterbury Rd,-37.83638598,145.18732054
11497,Terrara Rd/Canterbury Rd,-37.83663637,145.19188245
11498,Mitcham Rd/Canterbury Rd,-37.83606474,145.19456676
11499,Grove St/Mitcham Rd,-37.83445916,145.19506042
115,Ivanhoe Station/Norman St,-37.7689609,145.04494669
1150,Devon Dr/Maxia Rd,-37.79753606,145.15603869
11500,Malvern St/Mitcham Rd,-37.83280761,145.1949075
11501,Redland Dr/Mitcham Rd,-37.83162556,145.19481132
11502,Alwyn St/Mitcham Rd,-37.82854041,145.19461382
11503,Carween Ave/Mitcham Rd,-37.82678076,145.19446356
11504,Simpson St/Mitcham Rd,-37.82392931,145.19422629
11505,Barina Rd/High St,-37.86187574,145.06692144
11506,Lurnea Rd/High St,-37.86208817,145.06888238
11508,Barkly St/Carlisle St,-37.8672529,144.98192087
11509,Greeves St/Carlisle St,-37.8674178,144.98365563
1151,Station St/Darebin Rd,-37.76548492,145.01974571
11511,Glen Eira Rd/Brighton Rd,-37.87552733,144.99202943
11512,Ripponlea Station/Glen Eira Rd,-37.87648059,144.99508456
11513,Hotham St/Glen Eira Rd,-37.87683018,144.99762177
11514,McWhae Ave/Glen Eira Rd,-37.87727225,145.00136164
11515,Bellavista Rd/High St,-37.86235082,145.0711603
11516,Orrong Rd/Glen Eira Rd,-37.87792092,145.00666496
11517,Hood Cres/Glen Eira Rd,-37.87856706,145.011832
11518,Kooyong Rd/Glen Eira Rd,-37.87904892,145.01582111
11519,Harcourt Ave/Glen Eira Rd,-37.87949732,145.01943598
1152,Baratta Street Reserve/Baratta St,-37.79712965,145.15310728
11520,Glen Eira City Hall/Glen Eira Rd,-37.87988622,145.02273413
11521,Tennyson Ave/Glen Eira Rd,-37.88039264,145.02659767
11522,Bambra Rd/Glen Eira Rd,-37.88077601,145.0295777
11523,Kambrook Rd/Glen Eira Rd,-37.8812973,145.03380478
11524,Neerim Rd/Koornang Rd,-37.88892903,145.05706034
11525,Carnegie Station/Koornang Rd,-37.88591946,145.05762839
11526,Darling Rd/Princes Hwy,-37.88385608,145.05874005
11527,Oakleigh SC/Hanover St,-37.90077313,145.09191411
11528,Wayville Cl/Wells Rd,-38.03144379,145.13291629
1153,Rosella St/Leeds St,-37.79618862,145.15114324
11530,Police Rd/Wanda St,-37.93394275,145.16595922
11531,Suemar St/Wanda St,-37.93158787,145.16635908
11532,Wright St/Bladin St,-37.86122144,144.77005413
11533,Briar Gr/Wanda St,-37.92691592,145.16727155
11534,Valewood Dr/Wanda St,-37.92436105,145.16698231
11535,Shaftsbury Dr/Wanda St,-37.9206574,145.16468527
11536,Ulm St/Bladin St,-37.8587173,144.77058425
11537,Laverton College/Bladin St,-37.85600802,144.77265486
11538,Barwise St/Bladin St,-37.85313618,144.77566214
11539,Chirnside Cres/Bladin St,-37.85092362,144.77541043
1154,Elizabeth St/Daly St,-37.79235227,145.14501555
11540,Old Geelong Rd/Bladin St,-37.84883604,144.77366623
11541,Tarran St/Old Geelong Rd,-37.84652448,144.7777132
11542,Maria St/Cherry Lane,-37.8398708,144.79094639
11543,107 Cherry Lane,-37.83801667,144.79491052
11544,James St/Cherry Lane,-37.83579771,144.7996125
11545,55 Cherry Lane,-37.83411556,144.80315069
11546,Dohertys Rd/Cherry Lane,-37.83094144,144.80835764
11547,Westgate Dr/Dohertys Rd,-37.83105635,144.81939789
11548,Altona Memorial Park/Dohertys Rd,-37.83137452,144.82295614
11549,Grieve Pde/Dohertys Rd,-37.83143198,144.82460192
1155,12 Bellara St,-37.79306077,145.14079592
11551,Mitcham Rd/Brunswick Rd,-37.8182024,145.19453627
11552,Creek Rd/Brunswick Rd,-37.81826064,145.19774986
11553,Brunswick Rd/Reserve Ave,-37.81869385,145.20014776
11554,Berry Ave/Reserve Ave,-37.82038835,145.20016341
11555,Garden Ave/Reserve Ave,-37.82175803,145.20015286
11556,Haverbrack Dr/Wellington Rd,-37.92361571,145.20042546
11557,Eastlink/Wellington Rd,-37.92545627,145.2147611
11558,Corporate Ave/Wellington Rd,-37.92643748,145.22123372
11559,Viewtech Pl/Wellington Rd,-37.92717675,145.22722311
1156,Wilma Ct/Bellara St,-37.79285953,145.13832525
11560,Stud Rd/Wellington Rd,-37.92770466,145.23176137
11561,Taylors Lane/Eildon Pde,-37.9180719,145.24628021
11562,Tyers Cres/Eildon Pde,-37.91841183,145.2497418
11563,Metcalf Cres/Eildon Pde,-37.91948092,145.25254911
11564,Jamieson Ave/Dandelion Dr,-37.91802741,145.25601904
11565,Severn Cres/Dandelion Dr,-37.91614154,145.25707601
11566,Celestial Ct/Dandelion Dr,-37.91496766,145.26057323
11567,Balmoral Ct/Wentworth Ave,-37.91713859,145.26172792
11568,Eggleton Rise/Wentworth Ave,-37.9190087,145.26265086
11569,Woodside Dr/Wentworth Ave,-37.92130854,145.26338172
1157,Cockaigne St/Church Rd,-37.78974268,145.13726788
11570,Buckingham St/Geelong Rd,-37.80068265,144.88936602
11571,Williamstown Rd/Geelong Rd,-37.80271267,144.88548073
11573,Edgar St/Geelong Rd,-37.80700976,144.87738469
11575,Lewis St/Geelong Rd,-37.80930852,144.87293445
11577,Stooke St/Geelong Rd,-37.81263257,144.86489907
11578,Richards St/Geelong Rd,-37.81304652,144.86337638
11581,Millers Rd/Geelong Rd,-37.81726885,144.84830521
11582,Iris Ave/Geelong Rd,-37.81790367,144.84606025
11583,Lilac Ave/Geelong Rd,-37.8185875,144.84354119
11584,Cypress Ave/Geelong Rd,-37.81921509,144.8413986
11585,Conifer Ave/Geelong Rd,-37.81972243,144.83908908
11586,Old Geelong Rd/Geelong Rd,-37.82045847,144.83647749
11588,Hall Rd/McCormicks Rd,-38.10105497,145.19728965
11589,Rowellyn Ave/Hall Rd,-38.10235104,145.19366541
1159,Sandstone Ave/Point Cook Rd,-37.88399924,144.75662153
11590,Lyrebird Dr/Hall Rd,-38.10185933,145.18982287
11591,Carrum Downs Regional SC/Lyrebird Dr,-38.10245633,145.1876299
11592,Parkdale Dr/Tattler St,-38.10476138,145.18750451
11593,Merri Creek/Newlands Rd,-37.73389633,144.97195344
11594,Golf Rd/Newlands Rd,-37.72902729,144.97232456
11595,Carr St/Newlands Rd,-37.73049244,144.9715811
11596,Golf Rd/Newlands Rd,-37.72895445,144.97228116
11599,Edwardes St/Newlands Rd,-37.71476632,144.98363796
116,Ivanhoe Station/Norman St,-37.7686158,145.04533041
1160,Lumen Christi PS/Point Cook Rd,-37.89241394,144.75510389
11600,Henty St/Newlands Rd,-37.71727071,144.9820045
11601,Norfolk Ct/Newlands Rd,-37.72144639,144.97693328
11602,Charman Rd/Weatherall Rd,-37.97243996,145.0537448
11603,Cheltenham Recreation Reserve/Weatherall Rd,-37.97212808,145.05123719
11604,Victor Ave/Weatherall Rd,-37.97154605,145.04657382
11605,Banool St/Weatherall Rd,-37.97107978,145.0429206
11606,Morey Rd/Weatherall Rd,-37.97074226,145.0399698
11607,Reserve Rd/Weatherall Rd,-37.97035564,145.03678128
11608,Tibbles St/Reserve Rd,-37.97173643,145.0358224
11609,Beaumaris North Primary School/Reserve Rd ,-37.97391076,145.0354343
1161,Sanctuary Lakes SC/Point Cook Rd,-37.89545791,144.75453379
11610,Balcombe Rd/Reserve Rd,-37.97691208,145.03492165
11611,Beaumaris Sec Col/Reserve Rd,-37.97831848,145.03441736
11612,Long Hollow Heathland/Reserve Rd,-37.98053746,145.03400521
11613,Beaumaris Community Centre/Reserve Rd,-37.98245133,145.03366949
11614,Triangle Gardens/Hampton St,-37.94174716,145.00167566
11615,Hampton Station/Hampton St,-37.93862048,145.00222688
11616,Willis St/Hampton St,-37.9368424,145.00259363
11617,Littlewood St/Hampton St,-37.93497366,145.00292867
11618,Hampton St/Holyrood St,-37.93383679,145.00284566
11619,St Marys PS/Holyrood St,-37.93348358,145.00009039
11620,Hampton RSL/Holyrood St,-37.93301931,144.99610936
11621,Gordon St/New St,-37.92977882,144.99368297
11622,Robert Grieve Reserve/Burrows St,-37.91900064,144.99366877
11623,Middle Brighton Station/Male St,-37.91556288,144.99711784
11624,Brighton PS/Male St,-37.91303826,145.00074661
11626,Firbank Grammar/St Andrews St,-37.90799798,144.99899498
11627,North Brighton Station/St Andrews St,-37.9056968,145.00145715
11629,High St/Leamington St,-37.71311982,145.00764123
11630,Leamington St/Whitby St,-37.71225573,145.00291126
11631,Barry St/Whitby St,-37.70969444,145.00333168
11632,Gellibrand Cres/Broadhurst Ave,-37.70832328,145.00218877
11633,Chauvel St/Broadhurst Ave,-37.70817657,145.00044585
11634,Broadhurst Ave/McFadzean Ave,-37.70754737,144.99788785
11635,Elliot St/McFadzean Ave,-37.7053299,144.99785678
11636,Glasgow Ave/McFadzean Ave,-37.70253931,144.99697911
11639,Dean Ct/Tattler St,-38.10347572,145.18945225
1164,Millicent Ave/Thompsons Rd,-37.77203483,145.09728338
11640,Doug Hannah Reserve/Anstey Ave,-37.69282333,144.98106841
11641,Anstey Ave/Churchill Ave,-37.692515,144.9757012
11643,Claremont Cres/Moira Ave,-37.69619755,144.9807614
11644,Ross St/Davidson St,-37.6961802,144.98817917
11645,LE Cotchin Reserve/Massey Ave,-37.69707121,144.99075231
11646,Amery St/Massey Ave,-37.69922304,144.99010443
11647,Godley St/Massey Ave,-37.70146095,144.98974909
11648,Glasgow Ave/Massey Ave,-37.70388753,144.98988769
11649,Fiddes St/Glasgow Ave,-37.70473237,144.98764169
1165,Royan Mews/Sommersby Rd,-37.89374029,144.74529564
11650,Ashfield St/Glasgow Ave,-37.70499234,144.98492373
11651,Radford Rd/Broadhurst Ave,-37.70666699,144.9837781
11652,Fiddes St/Broadhurst Ave,-37.70693076,144.98708313
11653,Edgars Creek Wetlands/Broadhurst Ave,-37.70763449,144.99506105
11654,McFadzean Ave/Broadhurst Ave,-37.70777536,144.9969856
11655,Leamington St/Compton St,-37.7138388,145.00273263
11656,Edwardes St/Compton St,-37.71570917,145.00248954
11657,Rowellyn Park Primary School/Tattler St ,-38.10348995,145.19213196
11658,Kelverne St/Newlands Rd,-37.71509728,144.98349285
1166,Oldfield Pl/Sommersby Rd,-37.89113942,144.74594355
11660,Henty St/Newlands Rd,-37.71699399,144.98215948
11661,Norfolk Ct/Newlands Rd,-37.72131775,144.97678929
11662,Photography Dr/Newlands Rd,-37.72617059,144.97390015
11663,Alexander Ave/Newlands Rd,-37.73225323,144.97178268
11666,Cross Rd/Embankment Gr,-38.04757292,145.11924193
11667,Baxter Ave/Embankment Gr,-38.0467102,145.12164569
11668,Chelbara General Store/Baxter Ave,-38.04460962,145.12215519
11669,Cross Rd/Ella Gr,-38.04417218,145.11903268
11670,Earnshaw Dr/Rowellyn Ave,-38.10539677,145.19306578
11671,Bayside Ave/Munro Ave,-38.04132916,145.1176355
11672,Fraser Ave/Munro Ave,-38.03915418,145.11631247
11673,Edithvale Rd/Munro Ave,-38.03684315,145.11493603
11674,Coburns Rd/Scarlet Oak Ave,-37.65963798,144.57143075
11675,Woodland Rise/Roslyn Park Dr,-37.66462659,144.57081469
11676,Stefan Dr/Roslyn Park Dr,-37.66294585,144.56796759
11677,Kim Lane/Roslyn Park Dr,-37.66325274,144.56450022
11678,Emerald Ct/Caitlyn Dr,-37.66445862,144.56398469
11679,Reidy Rise/Gamalite Dr,-37.66609197,144.56540496
11680,Edithvale Bowls Club/Edithvale Rd,-38.0350381,145.11926638
11681,Galilee Bvd/Gamalite Dr,-37.66913398,144.56391114
11682,Wells Rd/Edithvale Rd,-38.028746,145.12987454
11684,Oban Way/Greensborough Hwy,-37.72754896,145.07990517
11689,Stokes St/Finlayson St,-37.73480504,145.07116172
11690,Pyalong Ave/Finlayson St,-37.7374787,145.0693334
11691,Cremin Ct/Finlayson St,-37.73939083,145.06833047
11692,Park Rd/Beard St,-37.70563051,145.16064413
11693,Eurabbie Ct/Beard St,-37.70872969,145.16115738
11694,Frank St/Beard St,-37.70705266,145.16110808
11695,Livingstone Rd/Beard St,-37.71010622,145.15985284
11696,Fairdale Ct/Wycliffe Cres,-37.71180213,145.15937981
11697,Rondu Pl/Wycliffe Cres,-37.71272196,145.16114944
11698,Hartland Way/Wycliffe Cres,-37.71367301,145.16203348
11699,Marlow Pl/Wycliffe Cres,-37.71440397,145.16383055
117,Maltravers Rd/Marshall St,-37.76899066,145.04728455
1170,Hoddle St/Johnston St,-37.79996321,144.9935892
11700,Nyora Rd/Eucalyptus Rd,-37.7179813,145.16495615
11702,Mt Pleasant Rd/Eucalyptus Rd,-37.72358329,145.16299121
11703,Sweeneys Lane/Mt Pleasant Rd,-37.72504191,145.16001652
11705,Rockliffe St/Mt Pleasant Rd,-37.72546079,145.15510459
11706,Metery Rd/Mt Pleasant Rd,-37.72658017,145.15005038
11707,Streamline Swim School/Main Rd,-37.70776885,145.14986031
11708,Park West Rd/Main Rd,-37.70485675,145.15323355
11709,Short Rd/Wattletree Rd,-37.70043227,145.15153992
11710,Banks Rd/Wattletree Rd,-37.69641451,145.14934867
11713,Kim St/Ryans Rd,-37.680697,145.1441717
11714,Diamond Creek Cemetery/Main St,-37.67498913,145.14740933
11715,St Johns Anglican Church/Main St,-37.67342449,145.14935307
11716,Kemp Ave/Spring St,-37.68139975,144.9997817
11717,Neerim St/Spring St,-37.68167049,145.00246184
11718,Lantana Ave/Spring St,-37.68196456,145.00545886
11719,Harding St/Spring St,-37.68234095,145.00906604
1172,Palmer St/Johnston St,-37.79964799,144.99042905
11720,Clarke St/Spring St,-37.68257835,145.01138427
11721,Salamander Ave/Victoria Dr,-37.68444464,145.00024421
11722,Victoria Park/Victoria Dr,-37.68501823,144.99687224
11723,The Close/Victoria Dr,-37.68409898,144.99422082
11724,HR Uren Reserve/Victoria Dr,-37.68258309,144.99040626
11725,Carrington Bvd/Victoria Dr,-37.67897172,144.99054907
11726,Bendigo Cres/Victoria Dr,-37.67701052,144.99074939
11727,Robinvale Ave/Victoria Dr,-37.67392431,144.99103673
11728,RGC Cook Reserve/Victoria Dr,-37.67200706,144.99170068
11729,Gillwell Rd/Barry Rd,-37.67141606,144.99404084
11732,Franklin Rd/Edgars Rd,-37.67023946,145.00276839
11733,Pinetree Cres/Edgars Rd,-37.66751162,145.00399791
11734,Kingsway Dr/Edgars Rd,-37.66507604,145.00492475
11735,CityLife Church/Kingsway Dr,-37.66448725,145.0074119
11736,Lyndon St/Kingsway Dr,-37.66489097,145.01104019
11737,Linoak Ave/Kingsway Dr,-37.66511472,145.01308617
11738,Lalor Station/Kingsway Dr,-37.66533843,145.01513217
1174,Springfield Rd/Dorking Rd,-37.80882824,145.13259693
11743,Centenary Ave/Gamalite Dr,-37.67145767,144.56341567
11745,Craigielea Ave/Alfrieda St,-37.73918678,144.80164828
11746,Alfrieda St/Biggs St,-37.73705302,144.80272132
11747,Walter St/Biggs St,-37.73745678,144.80601148
11748,Oberon Ave/Biggs St,-37.73782836,144.80903029
1175,Trawool St/Dorking Rd,-37.80592627,145.13315845
11755,Sunshine Ave/Stenson Rd,-37.73906009,144.82541407
11756,Driscolls Rd/Stenson Rd,-37.73831624,144.82807983
11757,Dowling St/Driscolls Rd,-37.73699016,144.82751717
11758,Leavesdon Ave/Driscolls Rd,-37.73419831,144.82517054
11759,Valewood Dr/Driscolls Rd,-37.73171747,144.82307594
11760,Green Gully Rd/Driscolls Rd,-37.7281983,144.82087576
11761,Homestead Dr/Green Gully Rd,-37.72870843,144.81776332
11762,Sunshine Ave/Taylors Rd,-37.72928309,144.81327605
11763,Oslo Way/Taylors Rd,-37.72886859,144.80939653
11767,Carbine Way/Taylors Rd,-37.72804539,144.79618003
11768,Theodore St/Taylors Rd,-37.7282341,144.80000939
11769,Keilor Central Shopping Centre/Taylors Rd ,-37.72758038,144.80603072
11771,George St/Argyle Way,-37.88878476,145.22476701
11772,Rodney Dr/Carbine Way,-37.72675819,144.7967401
11773,Goodwood Dr/Belmont Ave,-37.72432829,144.79594987
11774,Thornhill Dr/Belmont Ave,-37.72350074,144.79988852
11775,Belmont Ave/Copernicus Way,-37.72135108,144.80107528
11776,Hotchkiss Way/Copernicus Way,-37.71968903,144.79893491
11777,Goodwood Dr/Copernicus Way,-37.7190365,144.79488152
11778,Roseberry Ave/Copernicus Way,-37.71781193,144.7920477
11779,Darebin Ave/Copernicus Way,-37.71523231,144.79000297
11780,Lady Nelson Way/Copernicus Way,-37.71311626,144.7896121
11781,Stockwell Cres/Lady Nelson Way,-37.71229774,144.79209798
11782,Mallacoota Ct/Chichester Dr,-37.709112,144.79425698
11783,Reed Cres/Bond Dr,-37.70348871,144.78464673
11784,Booth Way/Bond Dr,-37.70183143,144.78133887
11786,Ross Smith Ave/Nepean Hwy,-38.14168675,145.12185968
11787,O'Grady Ave/Nepean Hwy,-38.13808285,145.1235951
11788,Mereweather Ave/Nepean Hwy,-38.13432004,145.12441027
11789,Serrell St/Princes Hwy,-37.88434072,145.06189966
1179,Graham Ct/Old Geelong Rd,-37.87121729,144.72730525
11790,Karma Ave/Princes Hwy,-37.8845322,145.06422559
11791,Belgrave Rd/Princes Hwy,-37.8844416,145.06638834
11792,Bruce St/Dandenong Rd,-37.88444265,145.07084553
11793,Alma St/Dandenong Rd,-37.88643348,145.07685418
11795,Hillcrest Rd/High St,-37.86257088,145.0730415
11797,Munro Ave/High St,-37.86293932,145.07628291
11799,Ashburton Station/High St,-37.86347347,145.08085001
118,Lower Heidelberg Rd/Marshall St,-37.77116515,145.04689811
11800,Victory Bvd/High St,-37.86381882,145.08323955
11801,Huntingdale Rd/Waverley Rd,-37.88253059,145.10962227
11802,Donald St/Waverley Rd,-37.88296883,145.11278338
11803,Hansen St/Waverley Rd,-37.88326405,145.11545924
11804,Heany St/Waverley Rd,-37.88346558,145.11735295
11805,Pamela St/Waverley Rd,-37.88380592,145.12003908
11806,Toirram Rd/Waverley Rd,-37.88401802,145.12203488
11807,Talbot Rd/Waverley Rd,-37.88434435,145.1244144
11808,Forster Rd/Waverley Rd,-37.88505964,145.13142331
11809,Bruce St/Waverley Rd,-37.8854292,145.13426801
11810,Scammell Cl/Waverley Rd,-37.88614448,145.14074269
11811,Meadow Cres/Waverley Rd,-37.88630312,145.14222828
11812,Blackburn Rd/Waverley Rd,-37.88674922,145.14651528
11813,Stableford Ave/Waverley Rd,-37.8871093,145.14878045
11814,Saladin Ave/Waverley Rd,-37.88753438,145.15231757
11815,Monash Aquatic & Recreation Centre/Waverley Rd,-37.88797093,145.15659357
11816,Myrtle St/Waverley Rd,-37.88836537,145.15991549
11817,Central Reserve/Waverley Rd,-37.88869861,145.16336406
11818,Stocks Ave/High St,-37.86411357,145.0858464
11819,Gloucester Rd/High St,-37.86444799,145.0886796
1182,Malpas St/Albert St,-37.73425756,145.02451555
11820,Warrigal Rd/High Street Rd,-37.86582716,145.09370255
11821,Barrington Dr/High Street Rd,-37.86636175,145.09833817
11822,Winbirra Pde/High Street Rd,-37.86653634,145.10022072
11823,Vannam Dr/High Street Rd,-37.8669489,145.10344995
11824,Cleveland Rd/High Street Rd,-37.86717997,145.10604727
11825,Teck St/High Street Rd,-37.86734214,145.10772556
11827,Huntingdale Rd/High Street Rd,-37.86798793,145.1125859
11828,281 High Street Rd,-37.86829251,145.11528372
11829,Glen Iris Valley Tennis Club/High Street Rd,-37.86862049,145.11832201
1183,Tyler St/Albert St,-37.73182648,145.02518155
11830,Park Rd/High Street Rd,-37.86918187,145.12300279
11831,Alice St/High Street Rd,-37.86935172,145.12461276
11832,Sunhill Rd/High Street Rd,-37.8698314,145.12870455
11833,Stephensons Rd/High Street Rd,-37.87012839,145.13094797
11834,Fleet St/High Street Rd,-37.8708296,145.13709195
11835,Josephine Ave/High Street Rd,-37.87113523,145.13989227
11836,Lawrence Rd/High Street Rd,-37.87151753,145.14298628
11837,Elm Gr/High Street Rd,-37.87188209,145.1461035
11838,Blackburn Rd/High Street Rd,-37.87226673,145.14935667
11839,Orchard St/High Street Rd,-37.87263255,145.15256488
1184,McComas St/Albert St,-37.72891627,145.02575811
11840,Medina Rd/High Street Rd,-37.87284811,145.15424208
11841,Lemair Ave/High Street Rd,-37.87297944,145.15629655
11842,Myers Ave/High Street Rd,-37.87338141,145.15894685
11843,Wesley College/High Street Rd,-37.87320501,145.15631367
11844,Point Nepean National Park Entrance/Point Nepean Rd,-38.31889139,144.70491692
11845,Delgany Ave/Point Nepean Rd,-38.31969096,144.71032455
11846,Nepean Pl/Point Nepean Rd,-38.31992261,144.71295935
11847,Point Nepean Rd/Franklin Rd,-38.32092871,144.71834923
11848,Burns Ave/Rosebank Ave,-37.93965361,145.13370548
11849,Premier Ave/Mitcham Rd,-37.83107812,145.19496102
1185,Vincent St/Wattletree Rd #50,-37.86422627,145.04337516
11850,Grey St/Mitcham Rd,-37.83335214,145.19515558
11853,Terrara Rd/Canterbury Rd,-37.83684926,145.19166135
11854,Rooks Rd/Canterbury Rd,-37.83675612,145.18794782
11855,Brentford Square SC/Stevens Rd,-37.83743272,145.18506769
11856,Woodcrest Rd/Stevens Rd,-37.83938388,145.18361077
11857,Kingsley Ave/Stevens Rd,-37.84092933,145.18331148
11858,Wingrove St/Stevens Rd,-37.84241189,145.18302509
1186,North Rd/Boldrewood Pde,-37.72204852,145.02195821
11860,Station St/Foch St,-37.83670406,145.12081507
11861,Sycamore St/Foch St,-37.83702462,145.12339775
11862,Foch St/Haig St,-37.83602308,145.12615028
11863,Devon St/Haig St,-37.8344688,145.12645095
11864,Prince St/Haig St,-37.83314747,145.12666618
11865,Peace St/Haig St,-37.83162002,145.12695479
11866,Canterbury Rd/Haig St,-37.82949026,145.12677004
11867,Stevens Rd/Jolimont Rd,-37.84436384,145.1822044
11868,Longbrae Ave/Jolimont Rd,-37.84412909,145.18042595
11869,Wingrove St/Hampshire Rd,-37.84262054,145.17903114
1187,Yarra Ave/Boldrewood Pde,-37.71991928,145.02127742
11870,Everglade Ave/Parkmore Rd,-37.84180128,145.17675575
11871,Cherryl St/Parkmore Rd,-37.84152355,145.17453524
11872,Springvale Rd/Parkmore Rd,-37.84121557,145.17211095
11874,Echunga Cl/Hawthorn Rd,-37.84758799,145.16927148
11875,St Thomas Ret Village/Hawthorn Rd,-37.84661081,145.16728408
11876,Romoly Dr/Mahoneys Rd,-37.8450821,145.1646058
11877,Mahoneys Reserve/Mahoneys Rd,-37.84350934,145.16488344
11878,Paul Rd/Mahoneys Rd,-37.84025551,145.16543
11879,Pacific Way/Mahoneys Rd,-37.8387995,145.16568198
1188,Boldrewood Pde/Broadway,-37.71819634,145.02064257
11880,Deans Wood Rd/Canterbury Rd,-37.83345807,145.1606556
11881,Masons Rd/Blackburn Rd,-37.83132732,145.15522046
11882,Eustace St/Blackburn Rd,-37.82989394,145.15404041
11883,Walsham Rd/Blackburn Rd,-37.82876406,145.1532505
11884,Wolseley Cres/Blackburn Rd,-37.82391771,145.15223518
11885,Wolseley Cres/Blackburn Rd,-37.8238831,145.15232694
11886,Wellington Ave/Blackburn Rd,-37.82669115,145.15266592
11887,Walsham Rd/Blackburn Rd,-37.82861199,145.15332246
11888,Eustace St/Blackburn Rd,-37.83018844,145.15443075
1189,Fordham Rd/Broadway,-37.71770319,145.0165035
11891,Wreford Rd/Canterbury Rd,-37.83165507,145.1456792
11892,Donald St/Canterbury Rd,-37.83134776,145.14333487
11893,Aberdeen Rd/Canterbury Rd,-37.83094481,145.14007262
11895,Middleborough Rd/Canterbury Rd,-37.83058085,145.13700258
11896,Wembley Park/Canterbury Rd,-37.83012818,145.1334576
11897,Canterbury Rd/Barkly St,-37.8292475,145.12963942
11898,Menzies St/Barkly St,-37.82783698,145.12991363
11899,Cherryhinton St/Barkly St,-37.82621998,145.13023849
119,Rotherwood Rd/Lower Heidelberg Rd,-37.77162595,145.0496902
11900,Victoria St/Albion Rd,-37.82513339,145.12991371
11901,Albion Rd/William St,-37.82452272,145.12721377
11902,Glenmore Street Reserve/William St,-37.82322048,145.12749663
11903,Harrow St/William St,-37.82220507,145.12768135
11904,Rutland Rd/William St,-37.82090373,145.12802098
11906,Fernhill St/High Street Rd,-37.87357638,145.16046543
11907,Central Reserve/Waverley Rd,-37.88893212,145.16331277
11908,Myrtle St/Waverley Rd,-37.88848212,145.15988985
11909,Monash Aquatic & Recreation Centre/Waverley Rd,-37.88796543,145.15509272
1191,Marchant Ave/Broadway,-37.71702441,145.01098541
11910,Lilian St/Waverley Rd,-37.88753954,145.15149873
11911,Stableford Ave/Waverley Rd,-37.88724872,145.14904986
11912,Blackburn Rd/Waverley Rd,-37.88675404,145.14510517
11913,Coolarn St/Waverley Rd,-37.8863889,145.14195323
11914,Pinewood Dr/Waverley Rd,-37.88606169,145.13892545
11915,Bruce St/Waverley Rd,-37.88572809,145.13549988
11916,Stephensons Rd/Waverley Rd,-37.88464773,145.12648752
11917,Talbot Rd/Waverley Rd,-37.8843964,145.12428801
11918,Bales St/Waverley Rd,-37.88413476,145.12200918
11919,Pamela St/Waverley Rd,-37.88386643,145.11987835
11920,Mayfield Dr/Waverley Rd,-37.88364975,145.11759841
11921,Hansen St/Waverley Rd,-37.8833898,145.11543329
11922,Tuhans Rd/Waverley Rd,-37.88299867,145.11239602
11923,Huntingdale Rd/Waverley Rd,-37.88264733,145.10959655
11926,Medina Rd/High Street Rd,-37.87287808,145.15385479
11927,Edith St/High Street Rd,-37.87266706,145.15189326
11928,Blackburn Rd/High Street Rd,-37.8723867,145.14953557
1193,Orrong Ave/Cheddar Rd,-37.71457123,145.00926996
11931,Hooper St/Dandenong Rd,-37.88694805,145.07690902
11932,Wilson St/Dandenong Rd,-37.88554395,145.07315913
11933,Kilpa Rd/Keys Rd,-37.94917063,145.07117931
11934,Roberna St/Keys Rd,-37.9485211,145.06674659
11935,Friars Rd/Keys Rd,-37.94828118,145.06476133
11936,Canterbury Rd/Haig St,-37.82950575,145.12661058
11937,Peace St/Haig St,-37.8316456,145.12686324
11938,Prince St/Haig St,-37.83324547,145.12659552
11939,Devon St/Haig St,-37.83456644,145.12635758
11940,Foch St/Haig St,-37.83592345,145.12611871
11941,Sycamore St/Foch St,-37.83694355,145.12339981
11942,Station St/Foch St,-37.83663217,145.12082826
11943,Murray Rd/Gladstone Rd,-37.94439285,145.20959162
11944,Garden Rd/Wellington Rd,-37.91723064,145.14614853
11946,Nepean Hwy/Overton Rd,-38.12982276,145.12550653
11947,Kananook Ave/Boonong Ave,-38.12574183,145.12671748
11948,Fortescue Ave/Boonong Ave,-38.12597537,145.12836567
11949,Carder Ave/Boonong Ave,-38.1262228,145.13032152
1195,Palm Ave/Cheddar Rd,-37.71040453,145.01228545
11950,Boonong Ave/Wells Rd,-38.12575797,145.13339071
11953,VicRoads Customer Service Center/Hartnett Dr,-38.11782657,145.14069906
11954,Peninsula Bvd/Hartnett Dr,-38.1150415,145.14123735
11955,Heversham Dr/Hartnett Dr,-38.11228381,145.14179772
11956,St Annes Catholic PS/Brunel Rd,-38.10651992,145.14031287
11957,East Rd/Brunel Rd,-38.10424596,145.14068987
11958,Brunel Rd/Maple St,-38.10194589,145.14283515
11959,Smale Ct/Maple St,-38.1022934,145.14600815
1196,Rathcown Rd/Cheddar Rd,-37.70811912,145.01410473
11960,Maple St/Downs Rd,-38.10266268,145.14770946
11961,Lucas Cres/Downs Rd,-38.10398324,145.14801825
11962,Louise Ct/Downs Rd,-38.10631165,145.14766292
11963,Elisdon Dr/Austin Rd,-38.1072233,145.15061661
11964,Bambra Ct/Henry Cres,-38.10838102,145.15317641
11965,St Martins Ct/Brennan Dr,-37.88727971,145.22416637
11966,Seaford Rd/Henry Cres,-38.11156144,145.15256023
11967,Prince Cres/Seaford Rd,-38.11182511,145.150991
11968,Belvedere Park Primary School/Seaford Rd,-38.11140045,145.14748874
11969,Boonong Ave/Fortescue Ave,-38.12530816,145.12777809
1197,Miranda Rd/Cheddar Rd,-37.70625095,145.01554979
11970,Buna Ave/Fortescue Ave,-38.12378082,145.12806808
11971,McCulloch Ave/Fortescue Ave,-38.1216222,145.12832854
11972,Milne Ave/Fortescue Ave,-38.11893647,145.12887621
11973,Moresby Ave/Fortescue Ave,-38.11696091,145.12931446
11974,Bardia Ave/Fortescue Ave,-38.11367382,145.13001426
11975,Seaford Rd/Fortescue Ave,-38.11085361,145.13004057
11976,Johnstone St/Railway Pde,-38.10902403,145.12945993
11977,Seaford Station/Railway Pde,-38.10396899,145.12835718
11978,Coonara Ave/Railway Pde,-38.09967995,145.1283868
11979,Selsey St/Railway Pde,-38.09600308,145.12837798
1198,St Vigeons Rd/Cheddar Rd,-37.70493399,145.01654906
11980,Armstrongs Rd/Railway Pde,-38.09347959,145.12836253
11981,Ireland St/Railway Pde,-38.09100996,145.12833431
11982,Coolibar Ave/Railway Pde,-38.08873178,145.12787932
11983,Attunga Cres/Railway Pde,-38.08490297,145.12738412
11984,Burrawong Ave/Railway Pde,-38.08295206,145.12767332
11985,Kalimna St/Eel Race Rd,-38.0818797,145.12597911
11986,Barretts Rd/Robinsons Rd,-38.17903054,145.17790256
11987,Warrandyte Rd/Robinsons Rd,-38.18004499,145.18638256
11988,Gardeners Rd/Robinsons Rd,-38.18055771,145.19099355
11989,Nirvana Cl/Robinsons Rd,-38.18128683,145.19679803
1199,Harmer St/Cheddar Rd,-37.70242279,145.01780696
11990,Donald Rd/Robinsons Rd,-38.18225098,145.20443496
11991,Victory Rd/Robinsons Rd,-38.18353121,145.20801132
11992,Brennan Dr/Tintern Cres,-37.88689705,145.22269732
11993,Middle Rd/Robinsons Rd,-38.18609986,145.22941322
11994,Robinsons Rd/Pearcedale Rd,-38.18773511,145.23807395
11995,Victoria Rd/Pearcedale Rd,-38.19529243,145.23664715
11996,Evans St/Pearcedale Rd,-38.19949803,145.23586052
11997,Pearcedale Village SC/Baxter-Tooradin Rd,-38.20277084,145.23297217
11998,Middle Rd/Baxter-Tooradin Rd,-38.20179137,145.22479634
